[{"Meeting Day": "Friday", "Meeting Location": "Church meetinghouse", "Name": "SDJ Drummondville", "Meeting Time": "7:00 PM", "Summer Program": false, "Latitude": "45.8677", "Registration Fee": "$230", "Sections": ["Troop"], "Longitude": "-72.5147"}, {"Meeting Day": "Monday", "Meeting Location": "Eastern Passage Education Center", "Name": "3rd Eastern Passage", "Meeting Time": "6:30 PM", "Summer Program": false, "Latitude": "44.6146", "Registration Fee": "$230", "Sections": ["Troop"], "Longitude": "-63.46"}, {"Meeting Day": "Thursday", "Meeting Location": "St Lawrence School - Champlain Pavillion", "Name": "1st Candiac", "Meeting Time": "7:00 PM", "Summer Program": true, "Latitude": "45.3903", "Registration Fee": "$230", "Sections": ["Troop"], "Longitude": "-73.5277"}, {"Meeting Day": "Tuesday", "Meeting Location": "St. Edward's School", "Name": "1st Conception Bay South", "Meeting Time": "6:30 PM", "Summer Program": false, "Latitude": "47.4843", "Registration Fee": "$290", "Sections": ["Troop"], "Longitude": "-53.0281"}, {"Meeting Day": "Tuesday", "Meeting Location": "St. Andrews Elementary", "Name": "1st Macpherson", "Meeting Time": "7:30 PM", "Summer Program": true, "Latitude": "47.5637", "Registration Fee": "$230", "Sections": ["Troop"], "Longitude": "-52.7548"}, {"Meeting Day": "Monday", "Meeting Location": "St James Presbyterian Church", "Name": "2nd Hanwell", "Meeting Time": "7:15 PM", "Summer Program": false, "Latitude": "45.9097", "Registration Fee": "$230", "Sections": ["Troop"], "Longitude": "-66.745"}, {"Meeting Day": "Tuesday", "Meeting Location": "Donald Eddy Memorial Hall", "Name": "1st United", "Meeting Time": "6:15 PM", "Summer Program": false, "Latitude": "47.6176", "Registration Fee": "$230", "Sections": ["Troop"], "Longitude": "-65.6488"}, {"Meeting Day": "Tuesday", "Meeting Location": "Gays River United Church", "Name": "1st Gay's River A", "Meeting Time": "6:30 PM", "Summer Program": false, "Latitude": "45.0622", "Registration Fee": "$230", "Sections": ["Troop"], "Longitude": "-63.4243"}, {"Meeting Day": "Tuesday", "Meeting Location": "Chapelle de l'Eglise", "Name": "SDJ Lemoyne", "Meeting Time": "7:00 PM", "Summer Program": false, "Latitude": "45.4821", "Registration Fee": "$230", "Sections": ["Troop"], "Longitude": "-73.471"}, {"Meeting Day": "Tuesday", "Meeting Location": "John Paul II Elementary School", "Name": "1st Greenwood Sea Troop", "Meeting Time": "6:30 PM", "Summer Program": false, "Latitude": "45.423", "Registration Fee": "$275", "Sections": ["Troop"], "Longitude": "-75.601"}, {"Meeting Day": "Wednesday", "Meeting Location": "Valley View Public School", "Name": "1st Valley Scout", "Meeting Time": "6:00 PM", "Summer Program": true, "Latitude": "46.5945", "Registration Fee": "$265", "Sections": ["Troop"], "Longitude": "-81.0169"}, {"Meeting Day": "Wednesday", "Meeting Location": "Red Barn Facility", "Name": "1st Baie D'Urfe", "Meeting Time": "6:30 PM", "Summer Program": true, "Latitude": "45.4053", "Registration Fee": "$295", "Sections": ["Troop"], "Longitude": "-73.9245"}, {"Meeting Day": "Tuesday", "Meeting Location": "Southminster United Church", "Name": "17th Ottawa", "Meeting Time": "6:45 PM", "Summer Program": false, "Latitude": "45.3959", "Registration Fee": "$260", "Sections": ["Troop"], "Longitude": "-75.6762"}, {"Meeting Day": "Friday", "Meeting Location": "1897, Avenue de l'Eglise, St-Laurent, QC H4M 1E6", "Name": "Lien Doan Lac Viet", "Meeting Time": "7:30 PM", "Summer Program": false, "Latitude": "45.5018", "Registration Fee": "$295", "Sections": ["Troop"], "Longitude": "-73.6768"}, {"Meeting Day": "Wednesday", "Meeting Location": "Bird's Creek Community Centre", "Name": "1st Bancroft", "Meeting Time": "6:00 PM", "Summer Program": true, "Latitude": "45.0742", "Registration Fee": "$255", "Sections": ["Troop"], "Longitude": "-77.9003"}, {"Meeting Day": "Tuesday", "Meeting Location": "St. Anne's Christ Church (Parish) Church", "Name": "7th Fredericton", "Meeting Time": "7:00 PM", "Summer Program": false, "Latitude": "45.9607", "Registration Fee": "$230", "Sections": ["Troop"], "Longitude": "-66.6482"}, {"Meeting Day": "Wednesday", "Meeting Location": "St. David's United Church", "Name": "2nd Bible Hill A", "Meeting Time": "6:30 PM", "Summer Program": true, "Latitude": "45.3774", "Registration Fee": "$230", "Sections": ["Troop"], "Longitude": "-63.2556"}, {"Meeting Day": "Wednesday", "Meeting Location": "\u00c9cole Gaston-Pilon", "Name": "1st Boisbriand", "Meeting Time": "6:45 PM", "Summer Program": true, "Latitude": "45.6168", "Registration Fee": "$230", "Sections": ["Troop"], "Longitude": "-73.8557"}, {"Meeting Day": "Tuesday", "Meeting Location": "Queen Elizabeth School", "Name": "63rd Ottawa", "Meeting Time": "6:30 PM", "Summer Program": false, "Latitude": "45.4389", "Registration Fee": "$280", "Sections": ["Troop"], "Longitude": "-75.6455"}, {"Meeting Day": "Wednesday", "Meeting Location": "Colby Village Elementary School", "Name": "2nd Cole Harbour", "Meeting Time": "7:00 PM", "Summer Program": false, "Latitude": "44.6663", "Registration Fee": "$235", "Sections": ["Troop"], "Longitude": "-63.4851"}, {"Meeting Day": "Thursday", "Meeting Location": "Woodlawn United Church, Brick Building", "Name": "1st Woodlawn A", "Meeting Time": "6:45 PM", "Summer Program": true, "Latitude": "44.6774", "Registration Fee": "$230", "Sections": ["Troop"], "Longitude": "-63.5275"}, {"Meeting Day": "Wednesday", "Meeting Location": "Uniacke Fire Hall 654 1 Hwy.", "Name": "1st Uniacke A", "Meeting Time": "6:30 PM", "Summer Program": false, "Latitude": "45.0341", "Registration Fee": "$230", "Sections": ["Troop"], "Longitude": "-63.871"}, {"Meeting Day": "Monday", "Meeting Location": "St. John Fisher Church", "Name": "1st Valois United", "Meeting Time": "7:00 PM", "Summer Program": true, "Latitude": "45.4548", "Registration Fee": "$260", "Sections": ["Troop"], "Longitude": "-73.7904"}, {"Meeting Day": "Thursday", "Meeting Location": "Huntingdon Academy (GYM)", "Name": "1st Huntingdon", "Meeting Time": "7:00 PM", "Summer Program": true, "Latitude": "45.0885", "Registration Fee": "$240", "Sections": ["Troop"], "Longitude": "-74.1735"}, {"Meeting Day": "Tuesday", "Meeting Location": "Gaspereau Elementary School", "Name": "1st Gaspereau A", "Meeting Time": "6:30 PM", "Summer Program": false, "Latitude": "45.0626", "Registration Fee": "$230", "Sections": ["Troop"], "Longitude": "-64.3514"}, {"Meeting Day": "Tuesday", "Meeting Location": "Knights of Columbus Hall", "Name": "1st Carbonear", "Meeting Time": "6:30 PM", "Summer Program": false, "Latitude": "47.7205", "Registration Fee": "$230", "Sections": ["Troop"], "Longitude": "-53.224"}, {"Meeting Day": "Thursday", "Meeting Location": "First United Church", "Name": "2nd Truro A", "Meeting Time": "7:00 PM", "Summer Program": false, "Latitude": "45.3659", "Registration Fee": "$230", "Sections": ["Troop"], "Longitude": "-63.2813"}, {"Meeting Day": "Tuesday", "Meeting Location": "Saint Francis of Assisi", "Name": "1st Lincoln Lighthouse", "Meeting Time": "6:30 PM", "Summer Program": true, "Latitude": "45.898", "Registration Fee": "$230", "Sections": ["Troop"], "Longitude": "-66.5723"}, {"Meeting Day": "Monday", "Meeting Location": "Wolfville Baptist Church", "Name": "1st Wolfville A", "Meeting Time": "6:30 PM", "Summer Program": false, "Latitude": "45.0914", "Registration Fee": "$230", "Sections": ["Troop"], "Longitude": "-64.3632"}, {"Meeting Day": "Monday", "Meeting Location": "Princess Elizabeth School", "Name": "4th Lake Magog", "Meeting Time": "6:00 PM", "Summer Program": true, "Latitude": "45.2583", "Registration Fee": "$230", "Sections": ["Troop"], "Longitude": "-72.1484"}, {"Meeting Day": "Tuesday", "Meeting Location": "West Royalty Community centre", "Name": "West Royalty", "Meeting Time": "6:30 PM", "Summer Program": false, "Latitude": "46.2679", "Registration Fee": "$230", "Sections": ["Troop"], "Longitude": "-63.1585"}, {"Meeting Day": "Monday", "Meeting Location": "St Marks United Church", "Name": "St. Marks United", "Meeting Time": "6:30 PM", "Summer Program": false, "Latitude": "45.2492", "Registration Fee": "$230", "Sections": ["Troop"], "Longitude": "-66.0867"}, {"Meeting Day": "Monday", "Meeting Location": "MacDonald Drive Elementary", "Name": "1st Macdonald Drive", "Meeting Time": "7:00 PM", "Summer Program": false, "Latitude": "47.593", "Registration Fee": "$230", "Sections": ["Troop"], "Longitude": "-52.7128"}, {"Meeting Day": "Monday", "Meeting Location": "DSUC (Basement hall)", "Name": "1st Strathmore Troop", "Meeting Time": "7:30 PM", "Summer Program": false, "Latitude": "45.4447", "Registration Fee": "$230", "Sections": ["Troop"], "Longitude": "-73.769"}, {"Meeting Day": "Tuesday", "Meeting Location": "Albert Schweitzer School", "Name": "1st Mt. Bruno", "Meeting Time": "7:00 PM", "Summer Program": false, "Latitude": "45.5273", "Registration Fee": "$240", "Sections": ["Troop"], "Longitude": "-73.3575"}, {"Meeting Day": "Monday", "Meeting Location": "Woodroffe United Church", "Name": "96th Ottawa", "Meeting Time": "6:45 PM", "Summer Program": false, "Latitude": "45.375", "Registration Fee": "$295", "Sections": ["Troop"], "Longitude": "-75.7735"}, {"Meeting Day": "Thursday", "Meeting Location": "\u00c9cole Mer-et-Monde", "Name": "Riviere du Nord", "Meeting Time": "6:30 PM", "Summer Program": false, "Latitude": "45.7496", "Registration Fee": "$230", "Sections": ["Troop"], "Longitude": "-74.0592"}, {"Meeting Day": "Tuesday", "Meeting Location": "Basement", "Name": "1st St. Paul's United", "Meeting Time": "6:30 PM", "Summer Program": false, "Latitude": "45.7239", "Registration Fee": "$230", "Sections": ["Troop"], "Longitude": "-65.5146"}, {"Meeting Day": "Tuesday", "Meeting Location": "Chalet Arthur Seguin ", "Name": "1st Lakeside Heights", "Meeting Time": "6:30 PM", "Summer Program": false, "Latitude": "45.4562", "Registration Fee": "$230", "Sections": ["Troop"], "Longitude": "-73.8053"}, {"Meeting Day": "Thursday", "Meeting Location": "Rotary Lodge, Centennial Park", "Name": "1st Jones Lake", "Meeting Time": "7:00 PM", "Summer Program": true, "Latitude": "46.0854", "Registration Fee": "$230", "Sections": ["Troop"], "Longitude": "-64.81"}, {"Meeting Day": "Wednesday", "Meeting Location": "Happy Valley United Church", "Name": "1st Happy Valley", "Meeting Time": "6:30 PM", "Summer Program": false, "Latitude": "53.3083", "Registration Fee": "$230", "Sections": ["Troop"], "Longitude": "-60.3789"}, {"Meeting Day": "Wednesday", "Meeting Location": "Estabrooks Community Centre", "Name": "1st Five Island Lake", "Meeting Time": "7:00 PM", "Summer Program": false, "Latitude": "44.6903", "Registration Fee": "$255", "Sections": ["Troop"], "Longitude": "-63.883"}, {"Meeting Day": "Monday", "Meeting Location": "Lion's Den", "Name": "1st Sackville A", "Meeting Time": "7:00 PM", "Summer Program": true, "Latitude": "44.7735", "Registration Fee": "$240", "Sections": ["Troop"], "Longitude": "-63.6898"}, {"Meeting Day": "Thursday", "Meeting Location": "St. Jude School", "Name": "1st Vankleek Hill", "Meeting Time": "7:00 PM", "Summer Program": false, "Latitude": "45.5296", "Registration Fee": "$230", "Sections": ["Troop"], "Longitude": "-74.6467"}, {"Meeting Day": "Tuesday", "Meeting Location": "Mary Queen of the World", "Name": "1st Mount Pearl Lions Scout", "Meeting Time": "7:30 PM", "Summer Program": false, "Latitude": "47.5238", "Registration Fee": "$230", "Sections": ["Troop"], "Longitude": "-52.7853"}, {"Meeting Day": "Tuesday", "Meeting Location": "Cochrane Scout Hall", "Name": "1st Cochrane Troop", "Meeting Time": "6:45 PM", "Summer Program": false, "Latitude": "49.072", "Registration Fee": "$270", "Sections": ["Troop"], "Longitude": "-81.0177"}, {"Meeting Day": "Thursday", "Meeting Location": "Scout Hall", "Name": "1st St. Andrews Troop", "Meeting Time": "6:30 PM", "Summer Program": false, "Latitude": "45.0782", "Registration Fee": "$230", "Sections": ["Troop"], "Longitude": "-67.049"}, {"Meeting Day": "Monday", "Meeting Location": "Rockingham United Church Hall", "Name": "1st Clayton Park A", "Meeting Time": "7:00 PM", "Summer Program": false, "Latitude": "44.6748", "Registration Fee": "$265", "Sections": ["Troop"], "Longitude": "-63.6497"}, {"Meeting Day": "Tuesday", "Meeting Location": "Ash Lee Jefferson", "Name": "1st Riverlake A", "Meeting Time": "6:30 PM", "Summer Program": false, "Latitude": "44.8184", "Registration Fee": "$240", "Sections": ["Troop"], "Longitude": "-63.6156"}, {"Meeting Day": "Thursday", "Meeting Location": "RJ Kennedy Community Centre", "Name": "1st Cumberland Troop", "Meeting Time": "6:30 PM", "Summer Program": false, "Latitude": "45.5145", "Registration Fee": "$230", "Sections": ["Troop"], "Longitude": "-75.4041"}, {"Meeting Day": "Thursday", "Meeting Location": "French Shore Academy", "Name": "1st Port Saunders", "Meeting Time": "7:00 PM", "Summer Program": false, "Latitude": "50.6324", "Registration Fee": "$230", "Sections": ["Troop"], "Longitude": "-57.2706"}, {"Meeting Day": "Thursday", "Meeting Location": "St. James Anglican Church Hall", "Name": "1st Armdale A", "Meeting Time": "7:00 PM", "Summer Program": false, "Latitude": "44.6427", "Registration Fee": "$245", "Sections": ["Troop"], "Longitude": "-63.6217"}, {"Meeting Day": "Tuesday", "Meeting Location": "New World Island Academy", "Name": "1st Iceberg Alley", "Meeting Time": "7:45 PM", "Summer Program": true, "Latitude": "49.5572", "Registration Fee": "$230", "Sections": ["Troop"], "Longitude": "-54.7279"}, {"Meeting Day": "Tuesday", "Meeting Location": "Westminster chalet", "Name": "1st Fairview Centennial", "Meeting Time": "7:00 PM", "Summer Program": true, "Latitude": "45.4727", "Registration Fee": "$280", "Sections": ["Troop"], "Longitude": "-73.8443"}, {"Meeting Day": "Thursday", "Meeting Location": "Evergreen Park School", "Name": "1st Evergreen Park", "Meeting Time": "6:00 PM", "Summer Program": false, "Latitude": "46.1133", "Registration Fee": "$230", "Sections": ["Troop"], "Longitude": "-64.862"}, {"Meeting Day": "Monday", "Meeting Location": "Lions Club", "Name": "1st Pasadena Scout", "Meeting Time": "6:30 PM", "Summer Program": false, "Latitude": "49.0132", "Registration Fee": "$230", "Sections": ["Troop"], "Longitude": "-57.5788"}, {"Meeting Day": "Wednesday", "Meeting Location": "Morna Heights School", "Name": "1st Ketepec", "Meeting Time": "6:30 PM", "Summer Program": false, "Latitude": "45.2805", "Registration Fee": "$230", "Sections": ["Troop"], "Longitude": "-66.1592"}, {"Meeting Day": "Monday", "Meeting Location": "Pierre Elliot Trudeau Elementary School", "Name": "1st Hull Troop", "Meeting Time": "6:15 PM", "Summer Program": false, "Latitude": "45.4247", "Registration Fee": "$260", "Sections": ["Troop"], "Longitude": "-75.729"}, {"Meeting Day": "Thursday", "Meeting Location": "Connaught Elementary School", "Name": "32nd Ottawa", "Meeting Time": "7:30 PM", "Summer Program": false, "Latitude": "45.3999", "Registration Fee": "$260", "Sections": ["Troop"], "Longitude": "-75.7272"}, {"Meeting Day": "Thursday", "Meeting Location": "Ecclestone Chalet", "Name": "Kirkland Southwest", "Meeting Time": "7:00 PM", "Summer Program": true, "Latitude": "45.4623", "Registration Fee": "$245", "Sections": ["Troop"], "Longitude": "-73.8582"}, {"Meeting Day": "Thursday", "Meeting Location": "St. Matthew Wesley United Church Hall", "Name": "1st North Sydney", "Meeting Time": "7:00 PM", "Summer Program": false, "Latitude": "46.2065", "Registration Fee": "$230", "Sections": ["Troop"], "Longitude": "-60.2524"}, {"Meeting Day": "Tuesday", "Meeting Location": "St. Gregory Catholic School", "Name": "Carleton Place St Gregory's", "Meeting Time": "6:30 PM", "Summer Program": false, "Latitude": "45.1362", "Registration Fee": "$270", "Sections": ["Troop"], "Longitude": "-76.1613"}, {"Meeting Day": "Wednesday", "Meeting Location": "Silver Falls United Church", "Name": "11th Courtenay Silver Falls", "Meeting Time": "6:30 PM", "Summer Program": true, "Latitude": "45.3003", "Registration Fee": "$230", "Sections": ["Troop"], "Longitude": "-66.004"}, {"Meeting Day": "Monday", "Meeting Location": "2000, Regent Blvd,Saint-Hubert,Q.C.", "Name": "1st Greenfield Park Kaniatario", "Meeting Time": "7:00 PM", "Summer Program": false, "Latitude": "45.4913", "Registration Fee": "$230", "Sections": ["Troop"], "Longitude": "-73.4681"}, {"Meeting Day": "Thursday", "Meeting Location": "Lord Aylmer School (Junior Campus)", "Name": "1st Aylmer Troop A", "Meeting Time": "7:00 PM", "Summer Program": false, "Latitude": "45.3916", "Registration Fee": "$320", "Sections": ["Troop"], "Longitude": "-75.8399"}, {"Meeting Day": "Tuesday", "Meeting Location": "St. George's Anglican Church", "Name": "Chateauguay", "Meeting Time": "7:00 PM", "Summer Program": true, "Latitude": "45.3679", "Registration Fee": "$280", "Sections": ["Troop"], "Longitude": "-73.7357"}, {"Meeting Day": "Monday", "Meeting Location": "Cathedral Memorial Hall", "Name": "1st St. Margaret's A", "Meeting Time": "6:30 PM", "Summer Program": false, "Latitude": "45.9554", "Registration Fee": "$230", "Sections": ["Troop"], "Longitude": "-66.6374"}, {"Meeting Day": "Monday", "Meeting Location": "Holy Name of Mary School", "Name": "2nd Almonte", "Meeting Time": "6:30 PM", "Summer Program": false, "Latitude": "45.1794", "Registration Fee": "$230", "Sections": ["Troop"], "Longitude": "-76.1261"}, {"Meeting Day": "Thursday", "Meeting Location": "Camp Harris", "Name": "1st Lawrencetown (HRM) A", "Meeting Time": "6:45 PM", "Summer Program": false, "Latitude": "44.6823", "Registration Fee": "$240", "Sections": ["Troop"], "Longitude": "-63.3821"}, {"Meeting Day": "Monday", "Meeting Location": "Harry R. Hamilton Elementary School", "Name": "6th Sackville", "Meeting Time": "6:30 PM", "Summer Program": false, "Latitude": "44.7975", "Registration Fee": "$230", "Sections": ["Troop"], "Longitude": "-63.7277"}, {"Meeting Day": "Thursday", "Meeting Location": "Howick Elementary School", "Name": "1st Howick", "Meeting Time": "7:00 PM", "Summer Program": true, "Latitude": "45.1753", "Registration Fee": "$230", "Sections": ["Troop"], "Longitude": "-73.8611"}, {"Meeting Day": "Thursday", "Meeting Location": "Berwick Baptist Church", "Name": "2nd Berwick A", "Meeting Time": "7:00 PM", "Summer Program": true, "Latitude": "45.0909", "Registration Fee": "$230", "Sections": ["Troop"], "Longitude": "-64.8233"}, {"Meeting Day": "Thursday", "Meeting Location": "Prospect Road Elementry", "Name": "1st Prospect Road", "Meeting Time": "6:30 PM", "Summer Program": false, "Latitude": "44.5652", "Registration Fee": "$230", "Sections": ["Troop"], "Longitude": "-63.7328"}, {"Meeting Day": "Monday", "Meeting Location": "Central NB Academy ", "Name": "1st Upper Miramichi", "Meeting Time": "6:30 PM", "Summer Program": false, "Latitude": "46.4968", "Registration Fee": "$230", "Sections": ["Troop"], "Longitude": "-66.2943"}, {"Meeting Day": "Wednesday", "Meeting Location": "St. Mary's School", "Name": "1st Deep River", "Meeting Time": "6:30 PM", "Summer Program": false, "Latitude": "46.0952", "Registration Fee": "$230", "Sections": ["Troop"], "Longitude": "-77.4912"}, {"Meeting Day": "Monday", "Meeting Location": "Mary Queen of Peace School", "Name": "1st Mary Queen Of Peace", "Meeting Time": "7:30 PM", "Summer Program": false, "Latitude": "47.5065", "Registration Fee": "$235", "Sections": ["Troop"], "Longitude": "-52.806"}, {"Meeting Day": "Monday", "Meeting Location": "Norman Behnke Hall", "Name": "4th Petawawa A", "Meeting Time": "6:30 PM", "Summer Program": false, "Latitude": "45.8932", "Registration Fee": "$230", "Sections": ["Troop"], "Longitude": "-77.277"}, {"Meeting Day": "Wednesday", "Meeting Location": "7110 Newman Lasalle", "Name": "LDS Lasalle", "Meeting Time": "7:15 PM", "Summer Program": true, "Latitude": "45.4439", "Registration Fee": "$230", "Sections": ["Troop"], "Longitude": "-73.6144"}, {"Meeting Day": "Thursday", "Meeting Location": "Millwood Elementary School", "Name": "4th Sackville", "Meeting Time": "7:15 PM", "Summer Program": true, "Latitude": "44.7898", "Registration Fee": "$230", "Sections": ["Troop"], "Longitude": "-63.706"}, {"Meeting Day": "Wednesday", "Meeting Location": "Hammonds Plains Community Hall", "Name": "1st Hammonds Plains", "Meeting Time": "7:00 PM", "Summer Program": false, "Latitude": "44.7314", "Registration Fee": "$230", "Sections": ["Troop"], "Longitude": "-63.7566"}, {"Meeting Day": "Monday", "Meeting Location": "Faith Baptist Church", "Name": "1st New Maryland A", "Meeting Time": "7:00 PM", "Summer Program": false, "Latitude": "45.8849", "Registration Fee": "$230", "Sections": ["Troop"], "Longitude": "-66.6889"}, {"Meeting Day": "Monday", "Meeting Location": "Emily Carr Middle School", "Name": "1st Blackburn Hamlet", "Meeting Time": "6:30 PM", "Summer Program": false, "Latitude": "45.4317", "Registration Fee": "$255", "Sections": ["Troop"], "Longitude": "-75.5646"}, {"Meeting Day": "Tuesday", "Meeting Location": "St Andrews Presbyterian Church Hall", "Name": "5th Fredericton", "Meeting Time": "6:00 PM", "Summer Program": false, "Latitude": "45.9581", "Registration Fee": "$230", "Sections": ["Troop"], "Longitude": "-66.6439"}, {"Meeting Day": "Thursday", "Meeting Location": "x", "Name": "1st Three Rivers", "Meeting Time": "6:30 PM", "Summer Program": true, "Latitude": "46.3697", "Registration Fee": "$255", "Sections": ["Troop"], "Longitude": "-72.5397"}, {"Meeting Day": "Thursday", "Meeting Location": "Villanova Jr High", "Name": "1st Topsail Troop", "Meeting Time": "7:00 PM", "Summer Program": true, "Latitude": "47.5246", "Registration Fee": "$230", "Sections": ["Troop"], "Longitude": "-52.9458"}, {"Meeting Day": "Thursday", "Meeting Location": "St.Isidore Catholic Elementary School", "Name": "7th Kanata", "Meeting Time": "6:30 PM", "Summer Program": false, "Latitude": "45.3675", "Registration Fee": "$250", "Sections": ["Troop"], "Longitude": "-75.9485"}, {"Meeting Day": "Sunday", "Meeting Location": "FENWICK UNITED CHURCH", "Name": "1st Fenwick A", "Meeting Time": "6:30 PM", "Summer Program": false, "Latitude": "45.7698", "Registration Fee": "$230", "Sections": ["Troop"], "Longitude": "-64.2032"}, {"Meeting Day": "Various", "Meeting Location": "Topsail Elementary", "Name": "1st Topsail Troop", "Meeting Time": "7:00 PM", "Summer Program": false, "Latitude": "47.5246", "Registration Fee": "$230", "Sections": ["Troop"], "Longitude": "-52.9458"}, {"Meeting Day": "Tuesday", "Meeting Location": "Marysville Baptist Church", "Name": "1st Marysville", "Meeting Time": "7:00 PM", "Summer Program": false, "Latitude": "45.9896", "Registration Fee": "$230", "Sections": ["Troop"], "Longitude": "-66.5908"}, {"Meeting Day": "Wednesday", "Meeting Location": "St-Thomas School", "Name": "1st Cavagnal (Hudson)", "Meeting Time": "6:45 PM", "Summer Program": true, "Latitude": "45.4675", "Registration Fee": "$320", "Sections": ["Troop"], "Longitude": "-74.1603"}, {"Meeting Day": "Thursday", "Meeting Location": "Kinburn Community Centre", "Name": "1st West Carleton", "Meeting Time": "6:45 PM", "Summer Program": false, "Latitude": "45.3929", "Registration Fee": "$245", "Sections": ["Troop"], "Longitude": "-76.187"}, {"Meeting Day": "Monday", "Meeting Location": "Centre La Maison des Amis", "Name": "1st Mascouche Heights", "Meeting Time": "6:00 PM", "Summer Program": false, "Latitude": "45.7312", "Registration Fee": "$250", "Sections": ["Troop"], "Longitude": "-73.6498"}, {"Meeting Day": "Thursday", "Meeting Location": "x", "Name": "1st Three Rivers", "Meeting Time": "6:30 PM", "Summer Program": false, "Latitude": "46.3697", "Registration Fee": "$255", "Sections": ["Troop"], "Longitude": "-72.5397"}, {"Meeting Day": "Monday", "Meeting Location": "Campeau Center", "Name": "1st St. Simon's Blackfoot", "Meeting Time": "7:00 PM", "Summer Program": false, "Latitude": "45.5348", "Registration Fee": "$275", "Sections": ["Troop"], "Longitude": "-73.7383"}, {"Meeting Day": "Monday", "Meeting Location": "Fallingbrook Community Elementary School", "Name": "4th Orleans Dragon", "Meeting Time": "6:30 PM", "Summer Program": false, "Latitude": "45.4808", "Registration Fee": "$260", "Sections": ["Troop"], "Longitude": "-75.487"}, {"Meeting Day": "Wednesday", "Meeting Location": "Burk's Falls Baptist Church", "Name": "1st Burks Falls A", "Meeting Time": "6:30 PM", "Summer Program": false, "Latitude": "45.6213", "Registration Fee": "$230", "Sections": ["Troop"], "Longitude": "-79.4045"}, {"Meeting Day": "Various", "Meeting Location": "Springhill Baptist Church", "Name": "2nd Springhill Scout", "Meeting Time": "6:30 PM", "Summer Program": true, "Latitude": "45.6646", "Registration Fee": "$230", "Sections": ["Troop"], "Longitude": "-64.0345"}, {"Meeting Day": "Monday", "Meeting Location": "Church of Good Shepherd", "Name": "1st Wakefield", "Meeting Time": "6:30 PM", "Summer Program": true, "Latitude": "45.6317", "Registration Fee": "$230", "Sections": ["Troop"], "Longitude": "-75.9254"}, {"Meeting Day": "Thursday", "Meeting Location": "Upper Three Corner Sports Facility - Bauline Line, Torbay", "Name": "1st Torbay Scout", "Meeting Time": "6:30 PM", "Summer Program": false, "Latitude": "47.6415", "Registration Fee": "$265", "Sections": ["Troop"], "Longitude": "-52.7682"}, {"Meeting Day": "Tuesday", "Meeting Location": "Corpus Christi School", "Name": "36th Ottawa", "Meeting Time": "7:00 PM", "Summer Program": false, "Latitude": "45.4036", "Registration Fee": "$230", "Sections": ["Troop"], "Longitude": "-75.6925"}, {"Meeting Day": "Monday", "Meeting Location": "O'Connel Elementry School", "Name": "1st Chezzetcook A", "Meeting Time": "7:00 PM", "Summer Program": false, "Latitude": "44.7403", "Registration Fee": "$230", "Sections": ["Troop"], "Longitude": "-63.3206"}, {"Meeting Day": "Tuesday", "Meeting Location": "Christ Church Parish Hall (245 Westmorland St)", "Name": "3rd Fredericton", "Meeting Time": "7:00 PM", "Summer Program": false, "Latitude": "45.9607", "Registration Fee": "$230", "Sections": ["Troop"], "Longitude": "-66.6482"}, {"Meeting Day": "Monday", "Meeting Location": "Church Hall", "Name": "1st Moncton St. George's", "Meeting Time": "7:00 PM", "Summer Program": true, "Latitude": "46.0902", "Registration Fee": "$230", "Sections": ["Troop"], "Longitude": "-64.7787"}, {"Meeting Day": "Monday", "Meeting Location": "St. Trinitie School", "Name": "1st Vaudreuil Dorion Blazing Outbacks", "Meeting Time": "6:30 PM", "Summer Program": false, "Latitude": "45.3875", "Registration Fee": "$265", "Sections": ["Troop"], "Longitude": "-74.0192"}, {"Meeting Day": "Tuesday", "Meeting Location": "St James Church Hall", "Name": "1st Dartmouth ", "Meeting Time": "7:00 PM", "Summer Program": false, "Latitude": "44.6678", "Registration Fee": "$230", "Sections": ["Troop"], "Longitude": "-63.5633"}, {"Meeting Day": "Tuesday", "Meeting Location": "chapelle de l'\u00c9glise", "Name": "SDJ Longueuil", "Meeting Time": "7:00 PM", "Summer Program": false, "Latitude": "45.5656", "Registration Fee": "$230", "Sections": ["Troop"], "Longitude": "-73.4896"}, {"Meeting Day": "Wednesday", "Meeting Location": "Elizabeth Park Elementary", "Name": "1st Paradise", "Meeting Time": "7:00 PM", "Summer Program": true, "Latitude": "47.5362", "Registration Fee": "$260", "Sections": ["Troop"], "Longitude": "-52.8523"}, {"Meeting Day": "Monday", "Meeting Location": "George Bissett Elementary School", "Name": "6th Cole Harbour A", "Meeting Time": "7:00 PM", "Summer Program": false, "Latitude": "44.6779", "Registration Fee": "$230", "Sections": ["Troop"], "Longitude": "-63.4871"}, {"Meeting Day": "Monday", "Meeting Location": "Fanning Education Centre/Canso Academy", "Name": "5th Canso A", "Meeting Time": "6:00 PM", "Summer Program": false, "Latitude": "45.3329", "Registration Fee": "$230", "Sections": ["Troop"], "Longitude": "-60.9854"}, {"Meeting Day": "Monday", "Meeting Location": "ERNIE CHECKRIS Public School", "Name": "23rd Sudbury", "Meeting Time": "6:30 PM", "Summer Program": true, "Latitude": "46.5319", "Registration Fee": "$330", "Sections": ["Troop"], "Longitude": "-80.953"}, {"Meeting Day": "Monday", "Meeting Location": "Princess Elizabeth School", "Name": "4th Lake Magog", "Meeting Time": "6:00 PM", "Summer Program": false, "Latitude": "45.2583", "Registration Fee": "$230", "Sections": ["Troop"], "Longitude": "-72.1484"}, {"Meeting Day": "Monday", "Meeting Location": "St Johns Anglican Church Hall", "Name": "1st Nashwaaksis", "Meeting Time": "7:00 PM", "Summer Program": false, "Latitude": "45.9815", "Registration Fee": "$230", "Sections": ["Troop"], "Longitude": "-66.6609"}, {"Meeting Day": "Thursday", "Meeting Location": "HTB Fun Forest Camp", "Name": "2nd Beaver Bank Scout", "Meeting Time": "7:00 PM", "Summer Program": false, "Latitude": "44.8562", "Registration Fee": "$230", "Sections": ["Troop"], "Longitude": "-63.6826"}, {"Meeting Day": "Wednesday", "Meeting Location": "Socrates V Gym", "Name": "Hellenic Scouting Group Pavlides", "Meeting Time": "6:30 PM", "Summer Program": false, "Latitude": "45.5367", "Registration Fee": "$230", "Sections": ["Troop"], "Longitude": "-73.7665"}, {"Meeting Day": "Monday", "Meeting Location": "87 Hillcrest St, Bridgewater, NS", "Name": "3rd Bridgewater A", "Meeting Time": "6:30 PM", "Summer Program": false, "Latitude": "44.3737", "Registration Fee": "$230", "Sections": ["Troop"], "Longitude": "-64.524"}, {"Meeting Day": "Thursday", "Meeting Location": "St Margarets of Scotland Church", "Name": "22nd Halifax A", "Meeting Time": "6:30 PM", "Summer Program": false, "Latitude": "44.6683", "Registration Fee": "$230", "Sections": ["Troop"], "Longitude": "-63.6149"}, {"Meeting Day": "Thursday", "Meeting Location": "Trinity United Church", "Name": "1st North Bay", "Meeting Time": "7:00 PM", "Summer Program": true, "Latitude": "46.3101", "Registration Fee": "$240", "Sections": ["Troop"], "Longitude": "-79.4623"}, {"Meeting Day": "Monday", "Meeting Location": "Nashwaaksis United Church", "Name": "2nd Nashwaaksis", "Meeting Time": "6:30 PM", "Summer Program": false, "Latitude": "45.9827", "Registration Fee": "$230", "Sections": ["Troop"], "Longitude": "-66.6623"}, {"Meeting Day": "Tuesday", "Meeting Location": "St. Luke's Church Hall", "Name": "1st Gondola Point", "Meeting Time": "7:00 PM", "Summer Program": false, "Latitude": "45.4253", "Registration Fee": "$230", "Sections": ["Troop"], "Longitude": "-65.9609"}, {"Meeting Day": "Tuesday", "Meeting Location": "St. Philip's Intermediate School", "Name": "1st Portugal Cove", "Meeting Time": "7:30 PM", "Summer Program": false, "Latitude": "47.5701", "Registration Fee": "$230", "Sections": ["Troop"], "Longitude": "-52.8724"}, {"Meeting Day": "Monday", "Meeting Location": "St. Lambert Elementary School", "Name": "1st Greenfield Park", "Meeting Time": "8:00 AM", "Summer Program": false, "Latitude": "45.5025", "Registration Fee": "$230", "Sections": ["Troop"], "Longitude": "-73.5104"}, {"Meeting Day": "Thursday", "Meeting Location": "Claude D.Taylor School", "Name": "1st Riverview 4th Riverview Scout", "Meeting Time": "6:30 PM", "Summer Program": false, "Latitude": "46.0491", "Registration Fee": "$230", "Sections": ["Troop"], "Longitude": "-64.818"}, {"Meeting Day": "Tuesday", "Meeting Location": "Rosemere Memorial Community Centre", "Name": "1st Rosemere Memorial", "Meeting Time": "7:00 PM", "Summer Program": true, "Latitude": "45.6285", "Registration Fee": "$285", "Sections": ["Troop"], "Longitude": "-73.7985"}, {"Meeting Day": "Tuesday", "Meeting Location": "Fairview United Church Hall", "Name": "2nd Fairview A", "Meeting Time": "7:00 PM", "Summer Program": false, "Latitude": "44.6564", "Registration Fee": "$230", "Sections": ["Troop"], "Longitude": "-63.632"}, {"Meeting Day": "Thursday", "Meeting Location": "St Joseph School", "Name": "1st South Porcupine", "Meeting Time": "6:00 PM", "Summer Program": true, "Latitude": "48.4837", "Registration Fee": "$230", "Sections": ["Troop"], "Longitude": "-81.2061"}, {"Meeting Day": "Tuesday", "Meeting Location": "St Peter's Church Hall", "Name": "1st Springhill", "Meeting Time": "7:00 PM", "Summer Program": false, "Latitude": "45.9665", "Registration Fee": "$230", "Sections": ["Troop"], "Longitude": "-66.7393"}, {"Meeting Day": "Friday", "Meeting Location": "Trinity United Church Hall", "Name": "24th Montreal Trinity Rosemount", "Meeting Time": "7:00 PM", "Summer Program": true, "Latitude": "45.5508", "Registration Fee": "$255", "Sections": ["Troop"], "Longitude": "-73.5818"}, {"Meeting Day": "Wednesday", "Meeting Location": "Assiniboine Ave. Elementary", "Name": "1st Oromocto", "Meeting Time": "6:30 PM", "Summer Program": false, "Latitude": "45.8386", "Registration Fee": "$230", "Sections": ["Troop"], "Longitude": "-66.4778"}, {"Meeting Day": "Tuesday", "Meeting Location": "Living Way Church", "Name": "Englehart", "Meeting Time": "6:30 PM", "Summer Program": true, "Latitude": "47.825", "Registration Fee": "$230", "Sections": ["Troop"], "Longitude": "-79.8829"}, {"Meeting Day": "Tuesday", "Meeting Location": "Saint Kateri Tekakwitha ES", "Name": "14th Gloucester Land", "Meeting Time": "6:30 PM", "Summer Program": false, "Latitude": "45.4594", "Registration Fee": "$270", "Sections": ["Troop"], "Longitude": "-75.5224"}, {"Meeting Day": "Wednesday", "Meeting Location": "Immaculate Conception Hall", "Name": "1st Bridgeport Dominion A", "Meeting Time": "7:00 PM", "Summer Program": false, "Latitude": "46.2107", "Registration Fee": "$230", "Sections": ["Troop"], "Longitude": "-59.9985"}, {"Meeting Day": "Saturday", "Meeting Location": "Sts Peter & Paul - Closed Arabic Catholic Group", "Name": "Sts. Peter and Paul", "Meeting Time": "1:00 PM", "Summer Program": false, "Latitude": "45.4211", "Registration Fee": "$280", "Sections": ["Troop"], "Longitude": "-75.6643"}, {"Meeting Day": "Sunday", "Meeting Location": "Kensington Legion", "Name": "Kensington", "Meeting Time": "1:00 PM", "Summer Program": false, "Latitude": "46.4379", "Registration Fee": "$230", "Sections": ["Troop"], "Longitude": "-63.6346"}, {"Meeting Day": "Wednesday", "Meeting Location": "Russell High School - Gym B", "Name": "2nd Russell", "Meeting Time": "6:30 PM", "Summer Program": false, "Latitude": "45.2671", "Registration Fee": "$255", "Sections": ["Troop"], "Longitude": "-75.364"}, {"Meeting Day": "Monday", "Meeting Location": "All Saints High School", "Name": "1st Kanata Beaverbrook", "Meeting Time": "7:00 PM", "Summer Program": false, "Latitude": "45.3235", "Registration Fee": "$260", "Sections": ["Troop"], "Longitude": "-75.9236"}, {"Meeting Day": "Tuesday", "Meeting Location": "Royal West Academy", "Name": "1st Montreal West", "Meeting Time": "7:30 PM", "Summer Program": false, "Latitude": "45.455", "Registration Fee": "$230", "Sections": ["Troop"], "Longitude": "-73.6546"}, {"Meeting Day": "Sunday", "Meeting Location": "Goulds Elementary", "Name": "1st Goulds", "Meeting Time": "6:30 PM", "Summer Program": false, "Latitude": "47.4607", "Registration Fee": "$230", "Sections": ["Troop"], "Longitude": "-52.7721"}, {"Meeting Day": "Monday", "Meeting Location": "Aylesford Lions Hall", "Name": "1st Aylesford A", "Meeting Time": "6:45 PM", "Summer Program": true, "Latitude": "45.0332", "Registration Fee": "$230", "Sections": ["Troop"], "Longitude": "-64.8396"}, {"Meeting Day": "Monday", "Meeting Location": "Cobden Public School", "Name": "1st Cobden", "Meeting Time": "6:30 PM", "Summer Program": false, "Latitude": "45.6341", "Registration Fee": "$230", "Sections": ["Troop"], "Longitude": "-76.8622"}, {"Meeting Day": "Tuesday", "Meeting Location": "Port Union Lions Club", "Name": "1st Port Union Lions", "Meeting Time": "7:00 PM", "Summer Program": false, "Latitude": "48.4914", "Registration Fee": "$230", "Sections": ["Troop"], "Longitude": "-53.0794"}, {"Meeting Day": "Monday", "Meeting Location": "St George's Anglican Church", "Name": "2nd Gatineau", "Meeting Time": "6:30 PM", "Summer Program": false, "Latitude": "45.4822", "Registration Fee": "$250", "Sections": ["Troop"], "Longitude": "-75.6481"}, {"Meeting Day": "Wednesday", "Meeting Location": "Old Stratford Library", "Name": "Stratford Scout", "Meeting Time": "6:30 PM", "Summer Program": false, "Latitude": "46.2336", "Registration Fee": "$230", "Sections": ["Troop"], "Longitude": "-63.0937"}, {"Meeting Day": "Thursday", "Meeting Location": "Saint Andrew Junior SChool", "Name": "2nd Antigonish A", "Meeting Time": "6:45 PM", "Summer Program": false, "Latitude": "45.6268", "Registration Fee": "$230", "Sections": ["Troop"], "Longitude": "-62.0059"}, {"Meeting Day": "Monday", "Meeting Location": "Divine Infant Elementary School", "Name": "3rd Orleans", "Meeting Time": "7:00 PM", "Summer Program": false, "Latitude": "45.4876", "Registration Fee": "$280", "Sections": ["Troop"], "Longitude": "-75.5131"}, {"Meeting Day": "Monday", "Meeting Location": "Ecole Village des Jeunes", "Name": "1st St Eustache", "Meeting Time": "6:30 PM", "Summer Program": false, "Latitude": "45.5654", "Registration Fee": "$230", "Sections": ["Troop"], "Longitude": "-73.9115"}, {"Meeting Day": "Tuesday", "Meeting Location": "St. Mark's United Church", "Name": "1st Port Hawkesbury", "Meeting Time": "6:00 PM", "Summer Program": false, "Latitude": "45.6139", "Registration Fee": "$230", "Sections": ["Troop"], "Longitude": "-61.3595"}, {"Meeting Day": "Monday", "Meeting Location": "Ocean View Elementary School", "Name": "2nd Eastern Passage A", "Meeting Time": "7:00 PM", "Summer Program": true, "Latitude": "44.6089", "Registration Fee": "$230", "Sections": ["Troop"], "Longitude": "-63.4743"}, {"Meeting Day": "Monday", "Meeting Location": "Bay Community Centre", "Name": "1st St Margarets Bay/Boutiliers A", "Meeting Time": "6:30 PM", "Summer Program": false, "Latitude": "44.6591", "Registration Fee": "$230", "Sections": ["Troop"], "Longitude": "-63.9041"}, {"Meeting Day": "Thursday", "Meeting Location": "Carp Ridge Eco-Wellness Centre", "Name": "1st Carp", "Meeting Time": "6:30 PM", "Summer Program": true, "Latitude": "45.3086", "Registration Fee": "$280", "Sections": ["Troop"], "Longitude": "-76.0368"}, {"Meeting Day": "Wednesday", "Meeting Location": "St. Andrews United Church Duke & King", "Name": "3rd Truro A", "Meeting Time": "6:30 PM", "Summer Program": false, "Latitude": "45.3637", "Registration Fee": "$230", "Sections": ["Troop"], "Longitude": "-63.2857"}, {"Meeting Day": "Wednesday", "Meeting Location": "Bethel United Church Hall (Corner of George & Brookland)", "Name": "1st Sydney", "Meeting Time": "7:00 PM", "Summer Program": true, "Latitude": "46.1448", "Registration Fee": "$230", "Sections": ["Troop"], "Longitude": "-60.1972"}, {"Meeting Day": "Tuesday", "Meeting Location": "Falmouth Elementary School", "Name": "3rd Falmouth A", "Meeting Time": "6:30 PM", "Summer Program": true, "Latitude": "44.995", "Registration Fee": "$230", "Sections": ["Troop"], "Longitude": "-64.1665"}, {"Meeting Day": "Wednesday", "Meeting Location": "St Pauls United Church", "Name": "3rd Spryfield A", "Meeting Time": "7:00 PM", "Summer Program": false, "Latitude": "44.6105", "Registration Fee": "$230", "Sections": ["Troop"], "Longitude": "-63.6239"}, {"Meeting Day": "Thursday", "Meeting Location": "United Church Hall", "Name": "1st United, Gander", "Meeting Time": "7:00 PM", "Summer Program": false, "Latitude": "48.9545", "Registration Fee": "$230", "Sections": ["Troop"], "Longitude": "-54.6173"}, {"Meeting Day": "Tuesday", "Meeting Location": "Saint Francis of Assisi", "Name": "1st Lincoln Lighthouse", "Meeting Time": "6:30 PM", "Summer Program": false, "Latitude": "45.898", "Registration Fee": "$230", "Sections": ["Troop"], "Longitude": "-66.5723"}, {"Meeting Day": "Monday", "Meeting Location": "Westminster Presbyterian Church", "Name": "3rd Ottawa", "Meeting Time": "7:00 PM", "Summer Program": false, "Latitude": "45.4389", "Registration Fee": "$280", "Sections": ["Troop"], "Longitude": "-75.6455"}, {"Meeting Day": "Wednesday", "Meeting Location": "\u00c9cole Notre-Dame de Lorette", "Name": "1st Ile Perrot", "Meeting Time": "7:00 PM", "Summer Program": false, "Latitude": "45.3724", "Registration Fee": "$250", "Sections": ["Troop"], "Longitude": "-73.9885"}, {"Meeting Day": "Monday", "Meeting Location": "Holy Trinity Hall", "Name": "2nd Yarmouth A", "Meeting Time": "6:30 PM", "Summer Program": false, "Latitude": "43.8314", "Registration Fee": "$230", "Sections": ["Troop"], "Longitude": "-66.1176"}, {"Meeting Day": "Thursday", "Meeting Location": "First Baptist Church Halifax", "Name": "36th Halifax A", "Meeting Time": "7:00 PM", "Summer Program": false, "Latitude": "44.6351", "Registration Fee": "$240", "Sections": ["Troop"], "Longitude": "-63.5956"}, {"Meeting Day": "Wednesday", "Meeting Location": "Iona Presbyterian Church", "Name": "1st Portland Estates Scout", "Meeting Time": "7:30 PM", "Summer Program": false, "Latitude": "44.679", "Registration Fee": "$230", "Sections": ["Troop"], "Longitude": "-63.5085"}, {"Meeting Day": "Tuesday", "Meeting Location": "252 Willow Street", "Name": "1st Parrsboro Scout", "Meeting Time": "8:00 PM", "Summer Program": false, "Latitude": "45.3951", "Registration Fee": "$230", "Sections": ["Troop"], "Longitude": "-64.2853"}, {"Meeting Day": "Wednesday", "Meeting Location": "Malcolm Darrach Centre", "Name": "1st East Royalty", "Meeting Time": "7:15 PM", "Summer Program": false, "Latitude": "46.2771", "Registration Fee": "$230", "Sections": ["Troop"], "Longitude": "-63.1083"}, {"Meeting Day": "Tuesday", "Meeting Location": "Sacred Heart Church Hall", "Name": "1st Timberlea A", "Meeting Time": "7:00 PM", "Summer Program": false, "Latitude": "44.644", "Registration Fee": "$245", "Sections": ["Troop"], "Longitude": "-63.7082"}, {"Meeting Day": "Wednesday", "Meeting Location": "St. Eleanors Fire/Community Hall", "Name": "Summerside", "Meeting Time": "6:30 PM", "Summer Program": false, "Latitude": "46.422", "Registration Fee": "$230", "Sections": ["Troop"], "Longitude": "-63.8114"}, {"Meeting Day": "Monday", "Meeting Location": "John Caboto School", "Name": "1st David Thompson Troop", "Meeting Time": "7:00 PM", "Summer Program": true, "Latitude": "45.5389", "Registration Fee": "$250", "Sections": ["Troop"], "Longitude": "-73.6473"}, {"Meeting Day": "Monday", "Meeting Location": "Marshview Middle School", "Name": "1st Tantramar", "Meeting Time": "6:30 PM", "Summer Program": false, "Latitude": "45.9089", "Registration Fee": "$230", "Sections": ["Troop"], "Longitude": "-64.3731"}, {"Meeting Day": "Wednesday", "Meeting Location": "Maxville Sports Complex", "Name": "1st Maxville", "Meeting Time": "6:30 PM", "Summer Program": true, "Latitude": "45.2904", "Registration Fee": "$255", "Sections": ["Troop"], "Longitude": "-74.8571"}, {"Meeting Day": "Monday", "Meeting Location": "Community Centre", "Name": "1st Powassan", "Meeting Time": "7:00 PM", "Summer Program": true, "Latitude": "46.088", "Registration Fee": "$230", "Sections": ["Troop"], "Longitude": "-79.3636"}, {"Meeting Day": "Wednesday", "Meeting Location": "St Thomas the Apostle Catholic School", "Name": "1st Renfrew", "Meeting Time": "6:30 PM", "Summer Program": false, "Latitude": "45.4649", "Registration Fee": "$230", "Sections": ["Troop"], "Longitude": "-76.674"}, {"Meeting Day": "Monday", "Meeting Location": "downstairs-rear", "Name": "3rd Barrington Scout Troop", "Meeting Time": "6:30 PM", "Summer Program": false, "Latitude": "43.5855", "Registration Fee": "$230", "Sections": ["Troop"], "Longitude": "-65.4727"}, {"Meeting Day": "Monday", "Meeting Location": "Ferris Glen P.S.", "Name": "1st Callander", "Meeting Time": "7:00 PM", "Summer Program": true, "Latitude": "46.2655", "Registration Fee": "$250", "Sections": ["Troop"], "Longitude": "-79.2962"}, {"Meeting Day": "Wednesday", "Meeting Location": "Trinity Anglican Church Hall", "Name": "3rd Cornwall", "Meeting Time": "7:00 PM", "Summer Program": false, "Latitude": "45.0177", "Registration Fee": "$230", "Sections": ["Troop"], "Longitude": "-74.7309"}, {"Meeting Day": "Wednesday", "Meeting Location": "\u00c9cole Gaston-Pilon", "Name": "1st Boisbriand", "Meeting Time": "6:45 PM", "Summer Program": false, "Latitude": "45.6168", "Registration Fee": "$230", "Sections": ["Troop"], "Longitude": "-73.8557"}, {"Meeting Day": "Thursday", "Meeting Location": "Trinity United Church", "Name": "2nd Huntsville A", "Meeting Time": "7:00 PM", "Summer Program": false, "Latitude": "45.3267", "Registration Fee": "$230", "Sections": ["Troop"], "Longitude": "-79.2178"}, {"Meeting Day": "Thursday", "Meeting Location": "Forest Glen School/Irishtown Nature Park", "Name": "1st Saint Michaels", "Meeting Time": "7:00 PM", "Summer Program": true, "Latitude": "46.1219", "Registration Fee": "$230", "Sections": ["Troop"], "Longitude": "-64.7724"}, {"Meeting Day": "Wednesday", "Meeting Location": "Holy Redeemer Catholic School", "Name": "4th Kanata", "Meeting Time": "6:30 PM", "Summer Program": false, "Latitude": "45.3041", "Registration Fee": "$280", "Sections": ["Troop"], "Longitude": "-75.9014"}, {"Meeting Day": "Wednesday", "Meeting Location": "St.Patrick School", "Name": "1st Rockland", "Meeting Time": "7:30 PM", "Summer Program": false, "Latitude": "45.5407", "Registration Fee": "$255", "Sections": ["Troop"], "Longitude": "-75.2987"}, {"Meeting Day": "Thursday", "Meeting Location": "Copper Cliff School", "Name": "1st Copper Cliff Scout", "Meeting Time": "6:30 PM", "Summer Program": true, "Latitude": "46.4745", "Registration Fee": "$255", "Sections": ["Troop"], "Longitude": "-81.072"}, {"Meeting Day": "Wednesday", "Meeting Location": "Parc nature les Forestiers-de-Saint-Lazare", "Name": "1st St. Lazare", "Meeting Time": "6:30 PM", "Summer Program": true, "Latitude": "45.3916", "Registration Fee": "$300", "Sections": ["Troop"], "Longitude": "-74.0204"}, {"Meeting Day": "Monday", "Meeting Location": "St. Peter's United Church", "Name": "15th Sudbury", "Meeting Time": "6:30 PM", "Summer Program": true, "Latitude": "46.4754", "Registration Fee": "$280", "Sections": ["Troop"], "Longitude": "-81.0033"}, {"Meeting Day": "Thursday", "Meeting Location": "Kinbrun Community Centre", "Name": "2nd Arnprior", "Meeting Time": "6:45 PM", "Summer Program": false, "Latitude": "45.4377", "Registration Fee": "$230", "Sections": ["Troop"], "Longitude": "-76.3601"}, {"Meeting Day": "Monday", "Meeting Location": "Gretna Green Elementary", "Name": "1st Gretna Green", "Meeting Time": "6:30 PM", "Summer Program": false, "Latitude": "47.0279", "Registration Fee": "$230", "Sections": ["Troop"], "Longitude": "-65.4695"}, {"Meeting Day": "Thursday", "Meeting Location": "Holleuffer Chalet", "Name": "1st Kirkland Northwest", "Meeting Time": "6:30 PM", "Summer Program": false, "Latitude": "45.4496", "Registration Fee": "$255", "Sections": ["Troop"], "Longitude": "-73.8794"}, {"Meeting Day": "Thursday", "Meeting Location": "Maple Ridge Elementary, Lantz, NS", "Name": "1st Lantz A", "Meeting Time": "7:00 PM", "Summer Program": false, "Latitude": "44.9956", "Registration Fee": "$230", "Sections": ["Troop"], "Longitude": "-63.4686"}, {"Meeting Day": "Thursday", "Meeting Location": "Kingston & District School", "Name": "1st Kingston A", "Meeting Time": "6:30 PM", "Summer Program": false, "Latitude": "44.9914", "Registration Fee": "$230", "Sections": ["Troop"], "Longitude": "-64.9464"}, {"Meeting Day": "Thursday", "Meeting Location": "Silver Birches School", "Name": "West Ferris", "Meeting Time": "7:00 PM", "Summer Program": true, "Latitude": "46.2817", "Registration Fee": "$230", "Sections": ["Troop"], "Longitude": "-79.4387"}, {"Meeting Day": "Thursday", "Meeting Location": "", "Name": "1st Lourdes", "Meeting Time": "6:30 PM", "Summer Program": false, "Latitude": "45.5673", "Registration Fee": "$230", "Sections": ["Troop"], "Longitude": "-62.7159"}, {"Meeting Day": "Monday", "Meeting Location": "St. Lambert Elementary Gym", "Name": "Storer", "Meeting Time": "7:00 PM", "Summer Program": false, "Latitude": "45.5025", "Registration Fee": "$270", "Sections": ["Troop"], "Longitude": "-73.5105"}, {"Meeting Day": "Thursday", "Meeting Location": "Pine Beach Hall, Herron Road", "Name": "1st Pine Beach Nahani Scout", "Meeting Time": "7:00 PM", "Summer Program": false, "Latitude": "45.4488", "Registration Fee": "$230", "Sections": ["Troop"], "Longitude": "-73.7621"}, {"Meeting Day": "Monday", "Meeting Location": "St Luke's Elementary School", "Name": "3rd Widdifield", "Meeting Time": "6:30 PM", "Summer Program": false, "Latitude": "46.3302", "Registration Fee": "$245", "Sections": ["Troop"], "Longitude": "-79.4565"}, {"Meeting Day": "Tuesday", "Meeting Location": "Saint-Joseph-de-Mont-Royal", "Name": "First Town of Mount Royal", "Meeting Time": "7:00 PM", "Summer Program": false, "Latitude": "45.5202", "Registration Fee": "$355", "Sections": ["Troop"], "Longitude": "-73.6453"}, {"Meeting Day": "Thursday", "Meeting Location": "St. Agnes Church Hall", "Name": "26th Halifax A", "Meeting Time": "7:30 PM", "Summer Program": false, "Latitude": "44.6455", "Registration Fee": "$260", "Sections": ["Troop"], "Longitude": "-63.6151"}, {"Meeting Day": "Wednesday", "Meeting Location": "Westfield United Church", "Name": "1st Westfield", "Meeting Time": "6:30 PM", "Summer Program": true, "Latitude": "45.3417", "Registration Fee": "$230", "Sections": ["Troop"], "Longitude": "-66.2222"}, {"Meeting Day": "Sunday", "Meeting Location": "Lions Den", "Name": "1st Cumberland - Kwesomalegek", "Meeting Time": "6:30 PM", "Summer Program": true, "Latitude": "45.8336", "Registration Fee": "$230", "Sections": ["Troop"], "Longitude": "-64.213"}, {"Meeting Day": "Wednesday", "Meeting Location": "Beacon Hill Chalet", "Name": "1st Beaconsfield Heights", "Meeting Time": "6:30 PM", "Summer Program": false, "Latitude": "45.4392", "Registration Fee": "$280", "Sections": ["Troop"], "Longitude": "-73.8449"}, {"Meeting Day": "Tuesday", "Meeting Location": "Iroquois Falls Public School", "Name": "Iroquois Falls", "Meeting Time": "6:30 PM", "Summer Program": false, "Latitude": "48.7602", "Registration Fee": "$260", "Sections": ["Troop"], "Longitude": "-80.6088"}, {"Meeting Day": "Tuesday", "Meeting Location": "Westmount Park School Gym (door off Westmount Park)", "Name": "Westmount Park", "Meeting Time": "6:30 PM", "Summer Program": false, "Latitude": "45.4804", "Registration Fee": "$230", "Sections": ["Troop"], "Longitude": "-73.5955"}, {"Meeting Day": "Tuesday", "Meeting Location": "Forest Valley ES", "Name": "14th Gloucester Sea", "Meeting Time": "6:30 PM", "Summer Program": false, "Latitude": "45.4496", "Registration Fee": "$270", "Sections": ["Troop"], "Longitude": "-75.5364"}, {"Meeting Day": "Wednesday", "Meeting Location": "Morin Heights Elementary School", "Name": "1st Morin Heights", "Meeting Time": "6:45 PM", "Summer Program": true, "Latitude": "45.9039", "Registration Fee": "$230", "Sections": ["Troop"], "Longitude": "-74.24"}, {"Meeting Day": "Wednesday", "Meeting Location": "Cowan Heights Elementary School", "Name": "1st Cowan Heights", "Meeting Time": "7:45 PM", "Summer Program": false, "Latitude": "47.5325", "Registration Fee": "$240", "Sections": ["Troop"], "Longitude": "-52.7624"}, {"Meeting Day": "Thursday", "Meeting Location": "All Saint's Anglican Church", "Name": "54th Corner Brook", "Meeting Time": "7:00 PM", "Summer Program": false, "Latitude": "48.9616", "Registration Fee": "$250", "Sections": ["Troop"], "Longitude": "-57.9292"}, {"Meeting Day": "Monday", "Meeting Location": "Orleans United Church", "Name": "8th Orleans United Troop", "Meeting Time": "7:00 PM", "Summer Program": false, "Latitude": "45.476", "Registration Fee": "$270", "Sections": ["Troop"], "Longitude": "-75.5354"}, {"Meeting Day": "Monday", "Meeting Location": "Riverside Elementary", "Name": "4th Clarenville", "Meeting Time": "7:00 PM", "Summer Program": false, "Latitude": "48.191", "Registration Fee": "$230", "Sections": ["Troop"], "Longitude": "-53.9663"}, {"Meeting Day": "Tuesday", "Meeting Location": "Bedford United Church", "Name": "1st Bedford A", "Meeting Time": "7:00 PM", "Summer Program": false, "Latitude": "44.7445", "Registration Fee": "$255", "Sections": ["Troop"], "Longitude": "-63.6509"}, {"Meeting Day": "Saturday", "Meeting Location": "Notre Dame High School- Closed Group; Must Speak Hungarian", "Name": "28th Hungarian", "Meeting Time": "1:00 PM", "Summer Program": false, "Latitude": "45.3797", "Registration Fee": "$230", "Sections": ["Troop"], "Longitude": "-75.7559"}, {"Meeting Day": "Wednesday", "Meeting Location": "United Church Lennoxville, 6 Church Street, Sherbrooke (Lennoxville)", "Name": "1st Lennoxville", "Meeting Time": "6:30 PM", "Summer Program": false, "Latitude": "45.3676", "Registration Fee": "$265", "Sections": ["Troop"], "Longitude": "-71.8586"}, {"Meeting Day": "Wednesday", "Meeting Location": "Mountainside Church", "Name": "2nd Westmount", "Meeting Time": "6:30 PM", "Summer Program": false, "Latitude": "45.4851", "Registration Fee": "$230", "Sections": ["Troop"], "Longitude": "-73.6127"}, {"Meeting Day": "Tuesday", "Meeting Location": "Memorial United Church", "Name": "4th Grand Falls", "Meeting Time": "7:15 PM", "Summer Program": false, "Latitude": "48.9302", "Registration Fee": "$230", "Sections": ["Troop"], "Longitude": "-55.6598"}, {"Meeting Day": "Tuesday", "Meeting Location": "Joseph Giles", "Name": "5th Cole Harbour A", "Meeting Time": "6:30 PM", "Summer Program": false, "Latitude": "44.6859", "Registration Fee": "$230", "Sections": ["Troop"], "Longitude": "-63.4947"}, {"Meeting Day": "Thursday", "Meeting Location": "Summerlea United Church", "Name": "Summerlea Scout", "Meeting Time": "7:00 PM", "Summer Program": true, "Latitude": "45.4403", "Registration Fee": "$230", "Sections": ["Troop"], "Longitude": "-73.7118"}, {"Meeting Day": "Tuesday", "Meeting Location": "Stairs Memorial Church", "Name": "17th Dartmouth A", "Meeting Time": "6:30 PM", "Summer Program": true, "Latitude": "44.6725", "Registration Fee": "$230", "Sections": ["Troop"], "Longitude": "-63.5862"}, {"Meeting Day": "Tuesday", "Meeting Location": "Royal West Academy", "Name": "1st Montreal West", "Meeting Time": "7:30 PM", "Summer Program": true, "Latitude": "45.455", "Registration Fee": "$230", "Sections": ["Troop"], "Longitude": "-73.6546"}, {"Meeting Day": "Monday", "Meeting Location": "Princess Elizabeth School", "Name": "4th Lake Magog", "Meeting Time": "6:00 PM", "Summer Program": true, "Latitude": "45.2583", "Registration Fee": "$230", "Sections": ["Troop"], "Longitude": "-72.1484"}, {"Meeting Day": "Monday", "Meeting Location": "St. Lambert Elementary School", "Name": "1st Greenfield Park", "Meeting Time": "8:00 AM", "Summer Program": false, "Latitude": "45.5025", "Registration Fee": "$230", "Sections": ["Troop"], "Longitude": "-73.5104"}, {"Meeting Day": "Friday", "Meeting Location": "Church meetinghouse", "Name": "SDJ Drummondville", "Meeting Time": "7:00 PM", "Summer Program": false, "Latitude": "45.8677", "Registration Fee": "$230", "Sections": ["Troop"], "Longitude": "-72.5147"}, {"Meeting Day": "Thursday", "Meeting Location": "Howick Elementary School", "Name": "1st Howick", "Meeting Time": "7:00 PM", "Summer Program": true, "Latitude": "45.1753", "Registration Fee": "$230", "Sections": ["Troop"], "Longitude": "-73.8611"}, {"Meeting Day": "Tuesday", "Meeting Location": "Westminster chalet", "Name": "1st Fairview Centennial", "Meeting Time": "7:00 PM", "Summer Program": true, "Latitude": "45.4727", "Registration Fee": "$280", "Sections": ["Troop"], "Longitude": "-73.8443"}, {"Meeting Day": "Tuesday", "Meeting Location": "Saint-Joseph-de-Mont-Royal", "Name": "First Town of Mount Royal", "Meeting Time": "7:00 PM", "Summer Program": false, "Latitude": "45.5202", "Registration Fee": "$355", "Sections": ["Troop"], "Longitude": "-73.6453"}, {"Meeting Day": "Thursday", "Meeting Location": "Ecclestone Chalet", "Name": "Kirkland Southwest", "Meeting Time": "7:00 PM", "Summer Program": true, "Latitude": "45.4623", "Registration Fee": "$245", "Sections": ["Troop"], "Longitude": "-73.8582"}, {"Meeting Day": "Thursday", "Meeting Location": "RJ Kennedy Community Centre", "Name": "1st Cumberland Troop", "Meeting Time": "6:30 PM", "Summer Program": false, "Latitude": "45.5145", "Registration Fee": "$230", "Sections": ["Troop"], "Longitude": "-75.4041"}, {"Meeting Day": "Monday", "Meeting Location": "DSUC (Basement hall)", "Name": "1st Strathmore Troop", "Meeting Time": "7:30 PM", "Summer Program": false, "Latitude": "45.4447", "Registration Fee": "$230", "Sections": ["Troop"], "Longitude": "-73.769"}, {"Meeting Day": "Tuesday", "Meeting Location": "Royal West Academy", "Name": "1st Montreal West", "Meeting Time": "7:30 PM", "Summer Program": false, "Latitude": "45.455", "Registration Fee": "$230", "Sections": ["Troop"], "Longitude": "-73.6546"}, {"Meeting Day": "Tuesday", "Meeting Location": "Westmount Park School Gym (door off Westmount Park)", "Name": "Westmount Park", "Meeting Time": "6:30 PM", "Summer Program": false, "Latitude": "45.4804", "Registration Fee": "$230", "Sections": ["Troop"], "Longitude": "-73.5955"}, {"Meeting Day": "Monday", "Meeting Location": "John Caboto School", "Name": "1st David Thompson Troop", "Meeting Time": "7:00 PM", "Summer Program": true, "Latitude": "45.5389", "Registration Fee": "$250", "Sections": ["Troop"], "Longitude": "-73.6473"}, {"Meeting Day": "Thursday", "Meeting Location": "Summerlea United Church", "Name": "Summerlea Scout", "Meeting Time": "7:00 PM", "Summer Program": true, "Latitude": "45.4403", "Registration Fee": "$230", "Sections": ["Troop"], "Longitude": "-73.7118"}, {"Meeting Day": "Wednesday", "Meeting Location": "Parc nature les Forestiers-de-Saint-Lazare", "Name": "1st St. Lazare", "Meeting Time": "6:30 PM", "Summer Program": true, "Latitude": "45.3916", "Registration Fee": "$300", "Sections": ["Troop"], "Longitude": "-74.0204"}, {"Meeting Day": "Thursday", "Meeting Location": "x", "Name": "1st Three Rivers", "Meeting Time": "6:30 PM", "Summer Program": true, "Latitude": "46.3697", "Registration Fee": "$255", "Sections": ["Troop"], "Longitude": "-72.5397"}, {"Meeting Day": "Wednesday", "Meeting Location": "Red Barn Facility", "Name": "1st Baie D'Urfe", "Meeting Time": "6:30 PM", "Summer Program": true, "Latitude": "45.4053", "Registration Fee": "$295", "Sections": ["Troop"], "Longitude": "-73.9245"}, {"Meeting Day": "Tuesday", "Meeting Location": "chapelle de l'\u00c9glise", "Name": "SDJ Longueuil", "Meeting Time": "7:00 PM", "Summer Program": false, "Latitude": "45.5656", "Registration Fee": "$230", "Sections": ["Troop"], "Longitude": "-73.4896"}, {"Meeting Day": "Wednesday", "Meeting Location": "Morin Heights Elementary School", "Name": "1st Morin Heights", "Meeting Time": "6:45 PM", "Summer Program": true, "Latitude": "45.9039", "Registration Fee": "$230", "Sections": ["Troop"], "Longitude": "-74.24"}, {"Meeting Day": "Monday", "Meeting Location": "Centre La Maison des Amis", "Name": "1st Mascouche Heights", "Meeting Time": "6:00 PM", "Summer Program": false, "Latitude": "45.7312", "Registration Fee": "$250", "Sections": ["Troop"], "Longitude": "-73.6498"}, {"Meeting Day": "Tuesday", "Meeting Location": "Royal West Academy", "Name": "1st Montreal West", "Meeting Time": "7:30 PM", "Summer Program": true, "Latitude": "45.455", "Registration Fee": "$230", "Sections": ["Troop"], "Longitude": "-73.6546"}, {"Meeting Day": "Tuesday", "Meeting Location": "Rosemere Memorial Community Centre", "Name": "1st Rosemere Memorial", "Meeting Time": "7:00 PM", "Summer Program": true, "Latitude": "45.6285", "Registration Fee": "$285", "Sections": ["Troop"], "Longitude": "-73.7985"}, {"Meeting Day": "Friday", "Meeting Location": "Trinity United Church Hall", "Name": "24th Montreal Trinity Rosemount", "Meeting Time": "7:00 PM", "Summer Program": true, "Latitude": "45.5508", "Registration Fee": "$255", "Sections": ["Troop"], "Longitude": "-73.5818"}, {"Meeting Day": "Wednesday", "Meeting Location": "Maxville Sports Complex", "Name": "1st Maxville", "Meeting Time": "6:30 PM", "Summer Program": true, "Latitude": "45.2904", "Registration Fee": "$255", "Sections": ["Troop"], "Longitude": "-74.8571"}, {"Meeting Day": "Monday", "Meeting Location": "Fallingbrook Community Elementary School", "Name": "4th Orleans Dragon", "Meeting Time": "6:30 PM", "Summer Program": false, "Latitude": "45.4808", "Registration Fee": "$260", "Sections": ["Troop"], "Longitude": "-75.487"}, {"Meeting Day": "Wednesday", "Meeting Location": "Mountainside Church", "Name": "2nd Westmount", "Meeting Time": "6:30 PM", "Summer Program": false, "Latitude": "45.4851", "Registration Fee": "$230", "Sections": ["Troop"], "Longitude": "-73.6127"}, {"Meeting Day": "Tuesday", "Meeting Location": "Chalet Arthur Seguin ", "Name": "1st Lakeside Heights", "Meeting Time": "6:30 PM", "Summer Program": false, "Latitude": "45.4562", "Registration Fee": "$230", "Sections": ["Troop"], "Longitude": "-73.8053"}, {"Meeting Day": "Monday", "Meeting Location": "St. Lambert Elementary Gym", "Name": "Storer", "Meeting Time": "7:00 PM", "Summer Program": false, "Latitude": "45.5025", "Registration Fee": "$270", "Sections": ["Troop"], "Longitude": "-73.5105"}, {"Meeting Day": "Friday", "Meeting Location": "1897, Avenue de l'Eglise, St-Laurent, QC H4M 1E6", "Name": "Lien Doan Lac Viet", "Meeting Time": "7:30 PM", "Summer Program": false, "Latitude": "45.5018", "Registration Fee": "$295", "Sections": ["Troop"], "Longitude": "-73.6768"}, {"Meeting Day": "Wednesday", "Meeting Location": "\u00c9cole Notre-Dame de Lorette", "Name": "1st Ile Perrot", "Meeting Time": "7:00 PM", "Summer Program": false, "Latitude": "45.3724", "Registration Fee": "$250", "Sections": ["Troop"], "Longitude": "-73.9885"}, {"Meeting Day": "Wednesday", "Meeting Location": "\u00c9cole Gaston-Pilon", "Name": "1st Boisbriand", "Meeting Time": "6:45 PM", "Summer Program": true, "Latitude": "45.6168", "Registration Fee": "$230", "Sections": ["Troop"], "Longitude": "-73.8557"}, {"Meeting Day": "Thursday", "Meeting Location": "St. Jude School", "Name": "1st Vankleek Hill", "Meeting Time": "7:00 PM", "Summer Program": false, "Latitude": "45.5296", "Registration Fee": "$230", "Sections": ["Troop"], "Longitude": "-74.6467"}, {"Meeting Day": "Thursday", "Meeting Location": "Huntingdon Academy (GYM)", "Name": "1st Huntingdon", "Meeting Time": "7:00 PM", "Summer Program": true, "Latitude": "45.0885", "Registration Fee": "$240", "Sections": ["Troop"], "Longitude": "-74.1735"}, {"Meeting Day": "Thursday", "Meeting Location": "Summerlea United Church", "Name": "Summerlea Scout", "Meeting Time": "7:00 PM", "Summer Program": false, "Latitude": "45.4403", "Registration Fee": "$230", "Sections": ["Troop"], "Longitude": "-73.7118"}, {"Meeting Day": "Thursday", "Meeting Location": "St Lawrence School - Champlain Pavillion", "Name": "1st Candiac", "Meeting Time": "7:00 PM", "Summer Program": true, "Latitude": "45.3903", "Registration Fee": "$230", "Sections": ["Troop"], "Longitude": "-73.5277"}, {"Meeting Day": "Monday", "Meeting Location": "St. John Fisher Church", "Name": "1st Valois United", "Meeting Time": "7:00 PM", "Summer Program": true, "Latitude": "45.4548", "Registration Fee": "$260", "Sections": ["Troop"], "Longitude": "-73.7904"}, {"Meeting Day": "Monday", "Meeting Location": "St. Trinitie School", "Name": "1st Vaudreuil Dorion Blazing Outbacks", "Meeting Time": "6:30 PM", "Summer Program": false, "Latitude": "45.3875", "Registration Fee": "$265", "Sections": ["Troop"], "Longitude": "-74.0192"}, {"Meeting Day": "Monday", "Meeting Location": "Campeau Center", "Name": "1st St. Simon's Blackfoot", "Meeting Time": "7:00 PM", "Summer Program": false, "Latitude": "45.5348", "Registration Fee": "$275", "Sections": ["Troop"], "Longitude": "-73.7383"}, {"Meeting Day": "Monday", "Meeting Location": "2000, Regent Blvd,Saint-Hubert,Q.C.", "Name": "1st Greenfield Park Kaniatario", "Meeting Time": "7:00 PM", "Summer Program": false, "Latitude": "45.4913", "Registration Fee": "$230", "Sections": ["Troop"], "Longitude": "-73.4681"}, {"Meeting Day": "Thursday", "Meeting Location": "Holleuffer Chalet", "Name": "1st Kirkland Northwest", "Meeting Time": "6:30 PM", "Summer Program": false, "Latitude": "45.4496", "Registration Fee": "$255", "Sections": ["Troop"], "Longitude": "-73.8794"}, {"Meeting Day": "Wednesday", "Meeting Location": "United Church Lennoxville, 6 Church Street, Sherbrooke (Lennoxville)", "Name": "1st Lennoxville", "Meeting Time": "6:30 PM", "Summer Program": false, "Latitude": "45.3676", "Registration Fee": "$265", "Sections": ["Troop"], "Longitude": "-71.8586"}, {"Meeting Day": "Wednesday", "Meeting Location": "7110 Newman Lasalle", "Name": "LDS Lasalle", "Meeting Time": "7:15 PM", "Summer Program": true, "Latitude": "45.4439", "Registration Fee": "$230", "Sections": ["Troop"], "Longitude": "-73.6144"}, {"Meeting Day": "Wednesday", "Meeting Location": "Beacon Hill Chalet", "Name": "1st Beaconsfield Heights", "Meeting Time": "6:30 PM", "Summer Program": false, "Latitude": "45.4392", "Registration Fee": "$280", "Sections": ["Troop"], "Longitude": "-73.8449"}, {"Meeting Day": "Monday", "Meeting Location": "Divine Infant Elementary School", "Name": "3rd Orleans", "Meeting Time": "7:00 PM", "Summer Program": false, "Latitude": "45.4876", "Registration Fee": "$280", "Sections": ["Troop"], "Longitude": "-75.5131"}, {"Meeting Day": "Wednesday", "Meeting Location": "St.Patrick School", "Name": "1st Rockland", "Meeting Time": "7:30 PM", "Summer Program": false, "Latitude": "45.5407", "Registration Fee": "$255", "Sections": ["Troop"], "Longitude": "-75.2987"}, {"Meeting Day": "Thursday", "Meeting Location": "Pine Beach Hall, Herron Road", "Name": "1st Pine Beach Nahani Scout", "Meeting Time": "7:00 PM", "Summer Program": false, "Latitude": "45.4488", "Registration Fee": "$230", "Sections": ["Troop"], "Longitude": "-73.7621"}, {"Meeting Day": "Thursday", "Meeting Location": "\u00c9cole Mer-et-Monde", "Name": "Riviere du Nord", "Meeting Time": "6:30 PM", "Summer Program": false, "Latitude": "45.7496", "Registration Fee": "$230", "Sections": ["Troop"], "Longitude": "-74.0592"}, {"Meeting Day": "Tuesday", "Meeting Location": "Chapelle de l'Eglise", "Name": "SDJ Lemoyne", "Meeting Time": "7:00 PM", "Summer Program": false, "Latitude": "45.4821", "Registration Fee": "$230", "Sections": ["Troop"], "Longitude": "-73.471"}, {"Meeting Day": "Wednesday", "Meeting Location": "Socrates V Gym", "Name": "Hellenic Scouting Group Pavlides", "Meeting Time": "6:30 PM", "Summer Program": false, "Latitude": "45.5367", "Registration Fee": "$230", "Sections": ["Troop"], "Longitude": "-73.7665"}, {"Meeting Day": "Monday", "Meeting Location": "Ecole Village des Jeunes", "Name": "1st St Eustache", "Meeting Time": "6:30 PM", "Summer Program": false, "Latitude": "45.5654", "Registration Fee": "$230", "Sections": ["Troop"], "Longitude": "-73.9115"}, {"Meeting Day": "Wednesday", "Meeting Location": "St-Thomas School", "Name": "1st Cavagnal (Hudson)", "Meeting Time": "6:45 PM", "Summer Program": true, "Latitude": "45.4675", "Registration Fee": "$320", "Sections": ["Troop"], "Longitude": "-74.1603"}, {"Meeting Day": "Tuesday", "Meeting Location": "St. George's Anglican Church", "Name": "Chateauguay", "Meeting Time": "7:00 PM", "Summer Program": true, "Latitude": "45.3679", "Registration Fee": "$280", "Sections": ["Troop"], "Longitude": "-73.7357"}, {"Meeting Day": "Tuesday", "Meeting Location": "Albert Schweitzer School", "Name": "1st Mt. Bruno", "Meeting Time": "7:00 PM", "Summer Program": false, "Latitude": "45.5273", "Registration Fee": "$240", "Sections": ["Troop"], "Longitude": "-73.3575"}, {"Meeting Day": "Thursday", "Meeting Location": "Lady Eaton Public School", "Name": "1st Omemee A", "Meeting Time": "6:30 PM", "Summer Program": false, "Latitude": "44.2984", "Registration Fee": "$230", "Sections": ["Troop"], "Longitude": "-78.5676"}, {"Meeting Day": "Sunday", "Meeting Location": "Sauble Scout Camp", "Name": "1st Sauble Valley A", "Meeting Time": "1:30 PM", "Summer Program": false, "Latitude": "44.5953", "Registration Fee": "$230", "Sections": ["Troop"], "Longitude": "-81.1824"}, {"Meeting Day": "Monday", "Meeting Location": "Centre La Maison des Amis", "Name": "1st Mascouche Heights", "Meeting Time": "6:00 PM", "Summer Program": false, "Latitude": "45.7312", "Registration Fee": "$250", "Sections": ["Troop"], "Longitude": "-73.6498"}, {"Meeting Day": "Monday", "Meeting Location": "Divine Infant Elementary School", "Name": "3rd Orleans", "Meeting Time": "7:00 PM", "Summer Program": false, "Latitude": "45.4876", "Registration Fee": "$280", "Sections": ["Troop"], "Longitude": "-75.5131"}, {"Meeting Day": "Monday", "Meeting Location": "St Luke's Elementary School", "Name": "3rd Widdifield", "Meeting Time": "6:30 PM", "Summer Program": false, "Latitude": "46.3302", "Registration Fee": "$245", "Sections": ["Troop"], "Longitude": "-79.4565"}, {"Meeting Day": "Tuesday", "Meeting Location": "Chapelle de l'Eglise", "Name": "SDJ Lemoyne", "Meeting Time": "7:00 PM", "Summer Program": false, "Latitude": "45.4821", "Registration Fee": "$230", "Sections": ["Troop"], "Longitude": "-73.471"}, {"Meeting Day": "Thursday", "Meeting Location": "RJ Kennedy Community Centre", "Name": "1st Cumberland Troop", "Meeting Time": "6:30 PM", "Summer Program": false, "Latitude": "45.5145", "Registration Fee": "$230", "Sections": ["Troop"], "Longitude": "-75.4041"}, {"Meeting Day": "Tuesday", "Meeting Location": "The Good Shepherd C.S.", "Name": "1st Port Perry A Troop", "Meeting Time": "6:00 PM", "Summer Program": false, "Latitude": "44.1101", "Registration Fee": "$245", "Sections": ["Troop"], "Longitude": "-78.9624"}, {"Meeting Day": "Thursday", "Meeting Location": "United Church", "Name": "7th Prescott", "Meeting Time": "6:30 PM", "Summer Program": false, "Latitude": "44.7099", "Registration Fee": "$230", "Sections": ["Troop"], "Longitude": "-75.5176"}, {"Meeting Day": "Monday", "Meeting Location": "The Old School House", "Name": "1st Mildmay A", "Meeting Time": "7:00 PM", "Summer Program": false, "Latitude": "44.0402", "Registration Fee": "$230", "Sections": ["Troop"], "Longitude": "-81.1159"}, {"Meeting Day": "Thursday", "Meeting Location": "St. Martin de Porres", "Name": "1st Glen Cairn", "Meeting Time": "6:30 PM", "Summer Program": false, "Latitude": "45.288", "Registration Fee": "$275", "Sections": ["Troop"], "Longitude": "-75.8676"}, {"Meeting Day": "Tuesday", "Meeting Location": "Fenelon Falls Secondary School", "Name": "1st Fenelon Falls", "Meeting Time": "6:30 PM", "Summer Program": false, "Latitude": "44.4716", "Registration Fee": "$230", "Sections": ["Troop"], "Longitude": "-78.7059"}, {"Meeting Day": "Wednesday", "Meeting Location": "Alfred Taylor Community Centre", "Name": "1st North Gower-Kars", "Meeting Time": "6:30 PM", "Summer Program": false, "Latitude": "45.069", "Registration Fee": "$290", "Sections": ["Troop"], "Longitude": "-75.7302"}, {"Meeting Day": "Thursday", "Meeting Location": "Copper Cliff School", "Name": "1st Copper Cliff Scout", "Meeting Time": "6:30 PM", "Summer Program": true, "Latitude": "46.4745", "Registration Fee": "$255", "Sections": ["Troop"], "Longitude": "-81.072"}, {"Meeting Day": "Wednesday", "Meeting Location": "Frankford Public School Gym", "Name": "1st Wooler", "Meeting Time": "6:00 PM", "Summer Program": false, "Latitude": "44.2039", "Registration Fee": "$230", "Sections": ["Troop"], "Longitude": "-77.5987"}, {"Meeting Day": "Wednesday", "Meeting Location": "Morin Heights Elementary School", "Name": "1st Morin Heights", "Meeting Time": "6:45 PM", "Summer Program": true, "Latitude": "45.9039", "Registration Fee": "$230", "Sections": ["Troop"], "Longitude": "-74.24"}, {"Meeting Day": "Wednesday", "Meeting Location": "Russell High School - Gym B", "Name": "2nd Russell", "Meeting Time": "6:30 PM", "Summer Program": false, "Latitude": "45.2671", "Registration Fee": "$255", "Sections": ["Troop"], "Longitude": "-75.364"}, {"Meeting Day": "Monday", "Meeting Location": "Campeau Center", "Name": "1st St. Simon's Blackfoot", "Meeting Time": "7:00 PM", "Summer Program": false, "Latitude": "45.5348", "Registration Fee": "$275", "Sections": ["Troop"], "Longitude": "-73.7383"}, {"Meeting Day": "Thursday", "Meeting Location": "Huntingdon Academy (GYM)", "Name": "1st Huntingdon", "Meeting Time": "7:00 PM", "Summer Program": true, "Latitude": "45.0885", "Registration Fee": "$240", "Sections": ["Troop"], "Longitude": "-74.1735"}, {"Meeting Day": "Monday", "Meeting Location": "St Elizabeth Catholic Elementary School", "Name": "3rd Bowmanville", "Meeting Time": "6:30 PM", "Summer Program": true, "Latitude": "43.9267", "Registration Fee": "$280", "Sections": ["Troop"], "Longitude": "-78.6953"}, {"Meeting Day": "Monday", "Meeting Location": "Westminster Presbyterian Church", "Name": "3rd Ottawa", "Meeting Time": "7:00 PM", "Summer Program": false, "Latitude": "45.4389", "Registration Fee": "$280", "Sections": ["Troop"], "Longitude": "-75.6455"}, {"Meeting Day": "Wednesday", "Meeting Location": "Bells Corners United Church", "Name": "116th Nepean", "Meeting Time": "6:30 PM", "Summer Program": false, "Latitude": "45.3156", "Registration Fee": "$260", "Sections": ["Troop"], "Longitude": "-75.8282"}, {"Meeting Day": "Wednesday", "Meeting Location": "St. Mary's School", "Name": "1st Deep River", "Meeting Time": "6:30 PM", "Summer Program": false, "Latitude": "46.0952", "Registration Fee": "$230", "Sections": ["Troop"], "Longitude": "-77.4912"}, {"Meeting Day": "Tuesday", "Meeting Location": "Victoria Cross", "Name": "1st Mt. Forest A", "Meeting Time": "7:00 PM", "Summer Program": true, "Latitude": "43.974", "Registration Fee": "$230", "Sections": ["Troop"], "Longitude": "-80.7381"}, {"Meeting Day": "Wednesday", "Meeting Location": "St Leonard School", "Name": "1st Manotick", "Meeting Time": "6:30 PM", "Summer Program": false, "Latitude": "45.2381", "Registration Fee": "$265", "Sections": ["Troop"], "Longitude": "-75.6943"}, {"Meeting Day": "Thursday", "Meeting Location": "Burn Presbyterian Church", "Name": "2nd Brooklin A", "Meeting Time": "7:00 PM", "Summer Program": true, "Latitude": "44.0286", "Registration Fee": "$230", "Sections": ["Troop"], "Longitude": "-79.0015"}, {"Meeting Day": "Tuesday", "Meeting Location": "Havelock Belmont Public School", "Name": "1st Havelock", "Meeting Time": "6:30 PM", "Summer Program": true, "Latitude": "44.4354", "Registration Fee": "$230", "Sections": ["Troop"], "Longitude": "-77.8782"}, {"Meeting Day": "Thursday", "Meeting Location": "St. Jude School", "Name": "1st Vankleek Hill", "Meeting Time": "7:00 PM", "Summer Program": false, "Latitude": "45.5296", "Registration Fee": "$230", "Sections": ["Troop"], "Longitude": "-74.6467"}, {"Meeting Day": "Thursday", "Meeting Location": "Lord Aylmer School (Junior Campus)", "Name": "1st Aylmer Troop A", "Meeting Time": "7:00 PM", "Summer Program": false, "Latitude": "45.3916", "Registration Fee": "$320", "Sections": ["Troop"], "Longitude": "-75.8399"}, {"Meeting Day": "Wednesday", "Meeting Location": "Burk's Falls Baptist Church", "Name": "1st Burks Falls A", "Meeting Time": "6:30 PM", "Summer Program": false, "Latitude": "45.6213", "Registration Fee": "$230", "Sections": ["Troop"], "Longitude": "-79.4045"}, {"Meeting Day": "Thursday", "Meeting Location": "Vimy Ridge Public School", "Name": "1st Gloucester", "Meeting Time": "6:00 PM", "Summer Program": true, "Latitude": "45.3218", "Registration Fee": "$270", "Sections": ["Troop"], "Longitude": "-75.6212"}, {"Meeting Day": "Wednesday", "Meeting Location": "St. Luke's Anglican Church", "Name": "2nd Peterborough", "Meeting Time": "7:00 PM", "Summer Program": false, "Latitude": "44.312", "Registration Fee": "$230", "Sections": ["Troop"], "Longitude": "-78.3077"}, {"Meeting Day": "Wednesday", "Meeting Location": "St-Thomas School", "Name": "1st Cavagnal (Hudson)", "Meeting Time": "6:45 PM", "Summer Program": true, "Latitude": "45.4675", "Registration Fee": "$320", "Sections": ["Troop"], "Longitude": "-74.1603"}, {"Meeting Day": "Thursday", "Meeting Location": "The Salvation Army", "Name": "15th Peterborough", "Meeting Time": "6:30 PM", "Summer Program": false, "Latitude": "44.3047", "Registration Fee": "$230", "Sections": ["Troop"], "Longitude": "-78.3203"}, {"Meeting Day": "Thursday", "Meeting Location": "Brooklin United Church", "Name": "1st Brooklin A", "Meeting Time": "7:00 PM", "Summer Program": false, "Latitude": "43.9559", "Registration Fee": "$230", "Sections": ["Troop"], "Longitude": "-78.9613"}, {"Meeting Day": "Saturday", "Meeting Location": "South East Grey Suport Services", "Name": "1st Flesherton", "Meeting Time": "9:00 AM", "Summer Program": true, "Latitude": "44.2608", "Registration Fee": "$230", "Sections": ["Troop"], "Longitude": "-80.5495"}, {"Meeting Day": "Thursday", "Meeting Location": "Lakefield Scout Ship", "Name": "1st Lakefield", "Meeting Time": "6:30 PM", "Summer Program": false, "Latitude": "44.3329", "Registration Fee": "$230", "Sections": ["Troop"], "Longitude": "-78.3951"}, {"Meeting Day": "Monday", "Meeting Location": "Ferris Glen P.S.", "Name": "1st Callander", "Meeting Time": "7:00 PM", "Summer Program": true, "Latitude": "46.2655", "Registration Fee": "$250", "Sections": ["Troop"], "Longitude": "-79.2962"}, {"Meeting Day": "Wednesday", "Meeting Location": "Holy Redeemer Catholic School", "Name": "4th Kanata", "Meeting Time": "6:30 PM", "Summer Program": false, "Latitude": "45.3041", "Registration Fee": "$280", "Sections": ["Troop"], "Longitude": "-75.9014"}, {"Meeting Day": "Monday", "Meeting Location": "|St.Martha Catholic School", "Name": "Kingston Centre Scout", "Meeting Time": "6:30 PM", "Summer Program": false, "Latitude": "44.2651", "Registration Fee": "$265", "Sections": ["Troop"], "Longitude": "-76.4489"}, {"Meeting Day": "Thursday", "Meeting Location": "Rotary Hall", "Name": "1st Bracebridge A", "Meeting Time": "7:00 PM", "Summer Program": true, "Latitude": "45.0371", "Registration Fee": "$230", "Sections": ["Troop"], "Longitude": "-79.3184"}, {"Meeting Day": "Monday", "Meeting Location": "Woodroffe United Church", "Name": "96th Ottawa", "Meeting Time": "6:45 PM", "Summer Program": false, "Latitude": "45.375", "Registration Fee": "$295", "Sections": ["Troop"], "Longitude": "-75.7735"}, {"Meeting Day": "Tuesday", "Meeting Location": "Pope John XXIII Elementary School", "Name": "1st Nepean", "Meeting Time": "6:30 PM", "Summer Program": false, "Latitude": "45.3276", "Registration Fee": "$250", "Sections": ["Troop"], "Longitude": "-75.7681"}, {"Meeting Day": "Tuesday", "Meeting Location": "St Stephens Church", "Name": "123rd Ottawa", "Meeting Time": "7:15 PM", "Summer Program": false, "Latitude": "45.3556", "Registration Fee": "$250", "Sections": ["Troop"], "Longitude": "-75.7944"}, {"Meeting Day": "Tuesday", "Meeting Location": "Cochrane Scout Hall", "Name": "1st Cochrane Troop", "Meeting Time": "6:45 PM", "Summer Program": false, "Latitude": "49.072", "Registration Fee": "$270", "Sections": ["Troop"], "Longitude": "-81.0177"}, {"Meeting Day": "Monday", "Meeting Location": "Sutton Public School", "Name": "1st Sutton West A", "Meeting Time": "7:00 PM", "Summer Program": false, "Latitude": "44.3056", "Registration Fee": "$230", "Sections": ["Troop"], "Longitude": "-79.3634"}, {"Meeting Day": "Thursday", "Meeting Location": "Grace United Church", "Name": "1st Napanee Valley", "Meeting Time": "6:30 PM", "Summer Program": false, "Latitude": "44.2481", "Registration Fee": "$270", "Sections": ["Troop"], "Longitude": "-76.9533"}, {"Meeting Day": "Tuesday", "Meeting Location": "Corpus Christi School", "Name": "36th Ottawa", "Meeting Time": "7:00 PM", "Summer Program": false, "Latitude": "45.4036", "Registration Fee": "$230", "Sections": ["Troop"], "Longitude": "-75.6925"}, {"Meeting Day": "Tuesday", "Meeting Location": "chapelle de l'\u00c9glise", "Name": "SDJ Longueuil", "Meeting Time": "7:00 PM", "Summer Program": false, "Latitude": "45.5656", "Registration Fee": "$230", "Sections": ["Troop"], "Longitude": "-73.4896"}, {"Meeting Day": "Wednesday", "Meeting Location": "Knoxdale P.S.", "Name": "19th Nepean", "Meeting Time": "6:30 PM", "Summer Program": false, "Latitude": "45.3288", "Registration Fee": "$250", "Sections": ["Troop"], "Longitude": "-75.781"}, {"Meeting Day": "Thursday", "Meeting Location": "St Mark's Church", "Name": "1st Port Hope", "Meeting Time": "7:00 PM", "Summer Program": false, "Latitude": "43.9511", "Registration Fee": "$230", "Sections": ["Troop"], "Longitude": "-78.2903"}, {"Meeting Day": "Monday", "Meeting Location": "BALTIMORE PS GYM", "Name": "1st Baltimore A", "Meeting Time": "6:45 PM", "Summer Program": false, "Latitude": "44.0238", "Registration Fee": "$235", "Sections": ["Troop"], "Longitude": "-78.1436"}, {"Meeting Day": "Thursday", "Meeting Location": "Thamesford Scout Hall", "Name": "1st Kintore A", "Meeting Time": "7:00 PM", "Summer Program": false, "Latitude": "43.0425", "Registration Fee": "$230", "Sections": ["Troop"], "Longitude": "-80.8895"}, {"Meeting Day": "Wednesday", "Meeting Location": "Cambridge St. United Church", "Name": "1st Lindsay", "Meeting Time": "6:30 PM", "Summer Program": false, "Latitude": "44.3518", "Registration Fee": "$230", "Sections": ["Troop"], "Longitude": "-78.7381"}, {"Meeting Day": "Thursday", "Meeting Location": "Glad Tidings Church", "Name": "1st Drummond", "Meeting Time": "6:30 PM", "Summer Program": true, "Latitude": "44.9338", "Registration Fee": "$240", "Sections": ["Troop"], "Longitude": "-76.2521"}, {"Meeting Day": "Thursday", "Meeting Location": "The Salvation Army", "Name": "15th Peterborough", "Meeting Time": "6:30 PM", "Summer Program": true, "Latitude": "44.3047", "Registration Fee": "$230", "Sections": ["Troop"], "Longitude": "-78.3203"}, {"Meeting Day": "Thursday", "Meeting Location": "St. James' Anglican Church", "Name": "1st Orillia B", "Meeting Time": "7:00 PM", "Summer Program": false, "Latitude": "44.6103", "Registration Fee": "$255", "Sections": ["Troop"], "Longitude": "-79.4185"}, {"Meeting Day": "Monday", "Meeting Location": "Cobden Public School", "Name": "1st Cobden", "Meeting Time": "6:30 PM", "Summer Program": false, "Latitude": "45.6341", "Registration Fee": "$230", "Sections": ["Troop"], "Longitude": "-76.8622"}, {"Meeting Day": "Monday", "Meeting Location": "St. Andrews Presbyterian Church", "Name": "1st Coldwater A", "Meeting Time": "7:00 PM", "Summer Program": false, "Latitude": "44.6985", "Registration Fee": "$240", "Sections": ["Troop"], "Longitude": "-79.5583"}, {"Meeting Day": "Thursday", "Meeting Location": "St.Isidore Catholic Elementary School", "Name": "7th Kanata", "Meeting Time": "6:30 PM", "Summer Program": false, "Latitude": "45.3675", "Registration Fee": "$250", "Sections": ["Troop"], "Longitude": "-75.9485"}, {"Meeting Day": "Tuesday", "Meeting Location": "Mt. Albert Public School", "Name": "1st Mount Albert", "Meeting Time": "7:00 PM", "Summer Program": false, "Latitude": "44.1309", "Registration Fee": "$255", "Sections": ["Troop"], "Longitude": "-79.3152"}, {"Meeting Day": "Monday", "Meeting Location": "Roch Carrier School", "Name": "3rd Kanata Alpha", "Meeting Time": "7:00 PM", "Summer Program": true, "Latitude": "45.2822", "Registration Fee": "$290", "Sections": ["Troop"], "Longitude": "-75.8453"}, {"Meeting Day": "Sunday", "Meeting Location": "K1V 7T3", "Name": "Canadian Middle East Scouts", "Meeting Time": "10:00 AM", "Summer Program": false, "Latitude": "45.3778", "Registration Fee": "$230", "Sections": ["Troop"], "Longitude": "-75.661"}, {"Meeting Day": "Tuesday", "Meeting Location": "Saint Kateri Tekakwitha ES", "Name": "14th Gloucester Land", "Meeting Time": "6:30 PM", "Summer Program": false, "Latitude": "45.4594", "Registration Fee": "$270", "Sections": ["Troop"], "Longitude": "-75.5224"}, {"Meeting Day": "Tuesday", "Meeting Location": "Palmerston P.S, Legion Hall & Various Locations within Palmerston", "Name": "1st Palmerston A", "Meeting Time": "6:30 PM", "Summer Program": true, "Latitude": "43.867", "Registration Fee": "$245", "Sections": ["Troop"], "Longitude": "-80.7613"}, {"Meeting Day": "Monday", "Meeting Location": "Emily Carr Middle School", "Name": "1st Blackburn Hamlet", "Meeting Time": "6:30 PM", "Summer Program": false, "Latitude": "45.4317", "Registration Fee": "$255", "Sections": ["Troop"], "Longitude": "-75.5646"}, {"Meeting Day": "Wednesday", "Meeting Location": "\u00c9cole Notre-Dame de Lorette", "Name": "1st Ile Perrot", "Meeting Time": "7:00 PM", "Summer Program": false, "Latitude": "45.3724", "Registration Fee": "$250", "Sections": ["Troop"], "Longitude": "-73.9885"}, {"Meeting Day": "Tuesday", "Meeting Location": "Forest Valley ES", "Name": "14th Gloucester Sea", "Meeting Time": "6:30 PM", "Summer Program": false, "Latitude": "45.4496", "Registration Fee": "$270", "Sections": ["Troop"], "Longitude": "-75.5364"}, {"Meeting Day": "Thursday", "Meeting Location": "Howick Elementary School", "Name": "1st Howick", "Meeting Time": "7:00 PM", "Summer Program": true, "Latitude": "45.1753", "Registration Fee": "$230", "Sections": ["Troop"], "Longitude": "-73.8611"}, {"Meeting Day": "Wednesday", "Meeting Location": "Valley View Public School", "Name": "1st Valley Scout", "Meeting Time": "6:00 PM", "Summer Program": true, "Latitude": "46.5945", "Registration Fee": "$265", "Sections": ["Troop"], "Longitude": "-81.0169"}, {"Meeting Day": "Monday", "Meeting Location": "Church of Good Shepherd", "Name": "1st Wakefield", "Meeting Time": "6:30 PM", "Summer Program": true, "Latitude": "45.6317", "Registration Fee": "$230", "Sections": ["Troop"], "Longitude": "-75.9254"}, {"Meeting Day": "Wednesday", "Meeting Location": "Barrie Township Hall", "Name": "1st Land O Lakes", "Meeting Time": "6:30 PM", "Summer Program": true, "Latitude": "44.6121", "Registration Fee": "$230", "Sections": ["Troop"], "Longitude": "-76.8244"}, {"Meeting Day": "Wednesday", "Meeting Location": "Red Barn Facility", "Name": "1st Baie D'Urfe", "Meeting Time": "6:30 PM", "Summer Program": true, "Latitude": "45.4053", "Registration Fee": "$295", "Sections": ["Troop"], "Longitude": "-73.9245"}, {"Meeting Day": "Monday", "Meeting Location": "Bracebridge United Church", "Name": "3rd Bracebridge A", "Meeting Time": "7:30 PM", "Summer Program": true, "Latitude": "45.0395", "Registration Fee": "$230", "Sections": ["Troop"], "Longitude": "-79.3108"}, {"Meeting Day": "Thursday", "Meeting Location": "Connaught Elementary School", "Name": "32nd Ottawa", "Meeting Time": "7:30 PM", "Summer Program": false, "Latitude": "45.3999", "Registration Fee": "$260", "Sections": ["Troop"], "Longitude": "-75.7272"}, {"Meeting Day": "Wednesday", "Meeting Location": "Mountainside Church", "Name": "2nd Westmount", "Meeting Time": "6:30 PM", "Summer Program": false, "Latitude": "45.4851", "Registration Fee": "$230", "Sections": ["Troop"], "Longitude": "-73.6127"}, {"Meeting Day": "Tuesday", "Meeting Location": "John Paul II Elementary School", "Name": "1st Greenwood Sea Troop", "Meeting Time": "6:30 PM", "Summer Program": false, "Latitude": "45.423", "Registration Fee": "$275", "Sections": ["Troop"], "Longitude": "-75.601"}, {"Meeting Day": "Wednesday", "Meeting Location": "Trinity Bible Church", "Name": "1st Osgoode", "Meeting Time": "6:30 PM", "Summer Program": false, "Latitude": "45.1486", "Registration Fee": "$280", "Sections": ["Troop"], "Longitude": "-75.6011"}, {"Meeting Day": "Monday", "Meeting Location": "St. Peter's United Church", "Name": "15th Sudbury", "Meeting Time": "6:30 PM", "Summer Program": true, "Latitude": "46.4754", "Registration Fee": "$280", "Sections": ["Troop"], "Longitude": "-81.0033"}, {"Meeting Day": "Wednesday", "Meeting Location": "Rideau Park United Church", "Name": "28th Ottawa", "Meeting Time": "7:00 PM", "Summer Program": false, "Latitude": "45.3868", "Registration Fee": "$250", "Sections": ["Troop"], "Longitude": "-75.6627"}, {"Meeting Day": "Wednesday", "Meeting Location": "\u00c9cole Gaston-Pilon", "Name": "1st Boisbriand", "Meeting Time": "6:45 PM", "Summer Program": true, "Latitude": "45.6168", "Registration Fee": "$230", "Sections": ["Troop"], "Longitude": "-73.8557"}, {"Meeting Day": "Thursday", "Meeting Location": "Greenboro Pavilion", "Name": "137th Ottawa", "Meeting Time": "7:30 PM", "Summer Program": false, "Latitude": "45.3638", "Registration Fee": "$260", "Sections": ["Troop"], "Longitude": "-75.6472"}, {"Meeting Day": "Thursday", "Meeting Location": "Kinburn Community Centre", "Name": "1st West Carleton", "Meeting Time": "6:45 PM", "Summer Program": false, "Latitude": "45.3929", "Registration Fee": "$245", "Sections": ["Troop"], "Longitude": "-76.187"}, {"Meeting Day": "Wednesday", "Meeting Location": "Centennial Hylands ES", "Name": "1st Shelburne A", "Meeting Time": "6:00 PM", "Summer Program": false, "Latitude": "44.0795", "Registration Fee": "$260", "Sections": ["Troop"], "Longitude": "-80.1927"}, {"Meeting Day": "Wednesday", "Meeting Location": "Bird's Creek Community Centre", "Name": "1st Bancroft", "Meeting Time": "6:00 PM", "Summer Program": true, "Latitude": "45.0742", "Registration Fee": "$255", "Sections": ["Troop"], "Longitude": "-77.9003"}, {"Meeting Day": "Thursday", "Meeting Location": "Scout Hall, Community Centre", "Name": "1st Minden", "Meeting Time": "7:00 PM", "Summer Program": false, "Latitude": "44.9313", "Registration Fee": "$230", "Sections": ["Troop"], "Longitude": "-78.7261"}, {"Meeting Day": "Wednesday", "Meeting Location": "Knox United Church", "Name": "1st Ayr", "Meeting Time": "6:45 PM", "Summer Program": false, "Latitude": "43.2884", "Registration Fee": "$260", "Sections": ["Troop"], "Longitude": "-80.4536"}, {"Meeting Day": "Monday", "Meeting Location": "Lydia Trulls PS", "Name": "18th Oshawa A", "Meeting Time": "7:00 PM", "Summer Program": false, "Latitude": "43.9064", "Registration Fee": "$230", "Sections": ["Troop"], "Longitude": "-78.7809"}, {"Meeting Day": "Thursday", "Meeting Location": "\u00c9cole Mer-et-Monde", "Name": "Riviere du Nord", "Meeting Time": "6:30 PM", "Summer Program": false, "Latitude": "45.7496", "Registration Fee": "$230", "Sections": ["Troop"], "Longitude": "-74.0592"}, {"Meeting Day": "Tuesday", "Meeting Location": "Westmount Park School Gym (door off Westmount Park)", "Name": "Westmount Park", "Meeting Time": "6:30 PM", "Summer Program": false, "Latitude": "45.4804", "Registration Fee": "$230", "Sections": ["Troop"], "Longitude": "-73.5955"}, {"Meeting Day": "Wednesday", "Meeting Location": "Twin Lakes Secondary School", "Name": "1st Orillia A", "Meeting Time": "7:00 PM", "Summer Program": false, "Latitude": "44.5948", "Registration Fee": "$255", "Sections": ["Troop"], "Longitude": "-79.4325"}, {"Meeting Day": "Wednesday", "Meeting Location": "Maxville Sports Complex", "Name": "1st Maxville", "Meeting Time": "6:30 PM", "Summer Program": true, "Latitude": "45.2904", "Registration Fee": "$255", "Sections": ["Troop"], "Longitude": "-74.8571"}, {"Meeting Day": "Monday", "Meeting Location": "Morning Glory PS", "Name": "1st Pefferlaw A", "Meeting Time": "6:45 PM", "Summer Program": false, "Latitude": "44.3249", "Registration Fee": "$230", "Sections": ["Troop"], "Longitude": "-79.2417"}, {"Meeting Day": "Tuesday", "Meeting Location": "Rosemere Memorial Community Centre", "Name": "1st Rosemere Memorial", "Meeting Time": "7:00 PM", "Summer Program": true, "Latitude": "45.6285", "Registration Fee": "$285", "Sections": ["Troop"], "Longitude": "-73.7985"}, {"Meeting Day": "Tuesday", "Meeting Location": "Queen Elizabeth School", "Name": "63rd Ottawa", "Meeting Time": "6:30 PM", "Summer Program": false, "Latitude": "45.4389", "Registration Fee": "$280", "Sections": ["Troop"], "Longitude": "-75.6455"}, {"Meeting Day": "Tuesday", "Meeting Location": "Living Way Church", "Name": "Englehart", "Meeting Time": "6:30 PM", "Summer Program": true, "Latitude": "47.825", "Registration Fee": "$230", "Sections": ["Troop"], "Longitude": "-79.8829"}, {"Meeting Day": "Wednesday", "Meeting Location": "John Mahood PS", "Name": "1st Elmira A", "Meeting Time": "6:45 PM", "Summer Program": false, "Latitude": "43.5922", "Registration Fee": "$260", "Sections": ["Troop"], "Longitude": "-80.5618"}, {"Meeting Day": "Thursday", "Meeting Location": "Grand Howl Hall, Camp BEL", "Name": "1st Dorchester A", "Meeting Time": "7:00 PM", "Summer Program": false, "Latitude": "42.9791", "Registration Fee": "$230", "Sections": ["Troop"], "Longitude": "-81.0306"}, {"Meeting Day": "Thursday", "Meeting Location": "Trinity United Church", "Name": "2nd Huntsville A", "Meeting Time": "7:00 PM", "Summer Program": false, "Latitude": "45.3267", "Registration Fee": "$230", "Sections": ["Troop"], "Longitude": "-79.2178"}, {"Meeting Day": "Thursday", "Meeting Location": "St. John's Anglican Church Hall", "Name": "1st Richmond Troop", "Meeting Time": "7:00 PM", "Summer Program": false, "Latitude": "45.1875", "Registration Fee": "$230", "Sections": ["Troop"], "Longitude": "-75.8354"}, {"Meeting Day": "Monday", "Meeting Location": "St. Trinitie School", "Name": "1st Vaudreuil Dorion Blazing Outbacks", "Meeting Time": "6:30 PM", "Summer Program": false, "Latitude": "45.3875", "Registration Fee": "$265", "Sections": ["Troop"], "Longitude": "-74.0192"}, {"Meeting Day": "Thursday", "Meeting Location": "Loughborough Public School, Sydenham", "Name": "1st South Frontenac", "Meeting Time": "7:00 PM", "Summer Program": false, "Latitude": "44.4082", "Registration Fee": "$245", "Sections": ["Troop"], "Longitude": "-76.5947"}, {"Meeting Day": "Tuesday", "Meeting Location": "Holy Family School", "Name": "11th Ottawa", "Meeting Time": "6:30 PM", "Summer Program": false, "Latitude": "45.3543", "Registration Fee": "$270", "Sections": ["Troop"], "Longitude": "-75.666"}, {"Meeting Day": "Thursday", "Meeting Location": "Holleuffer Chalet", "Name": "1st Kirkland Northwest", "Meeting Time": "6:30 PM", "Summer Program": false, "Latitude": "45.4496", "Registration Fee": "$255", "Sections": ["Troop"], "Longitude": "-73.8794"}, {"Meeting Day": "Wednesday", "Meeting Location": "Northminster United Church", "Name": "27th Peterborough", "Meeting Time": "6:30 PM", "Summer Program": true, "Latitude": "44.3218", "Registration Fee": "$230", "Sections": ["Troop"], "Longitude": "-78.3309"}, {"Meeting Day": "Thursday", "Meeting Location": "St Mary Elementary School", "Name": "1st Greely", "Meeting Time": "7:00 PM", "Summer Program": false, "Latitude": "45.2485", "Registration Fee": "$275", "Sections": ["Troop"], "Longitude": "-75.5947"}, {"Meeting Day": "Wednesday", "Meeting Location": "St.Patrick School", "Name": "1st Rockland", "Meeting Time": "7:30 PM", "Summer Program": false, "Latitude": "45.5407", "Registration Fee": "$255", "Sections": ["Troop"], "Longitude": "-75.2987"}, {"Meeting Day": "Tuesday", "Meeting Location": "Trinity United Church", "Name": "2nd Listowel A", "Meeting Time": "7:00 PM", "Summer Program": false, "Latitude": "43.734", "Registration Fee": "$230", "Sections": ["Troop"], "Longitude": "-80.9556"}, {"Meeting Day": "Saturday", "Meeting Location": "Notre Dame High School- Closed Group; Must Speak Hungarian", "Name": "28th Hungarian", "Meeting Time": "1:00 PM", "Summer Program": false, "Latitude": "45.3797", "Registration Fee": "$230", "Sections": ["Troop"], "Longitude": "-75.7559"}, {"Meeting Day": "Monday", "Meeting Location": "Fairfield Elementary School", "Name": "1st Amherstview", "Meeting Time": "6:45 PM", "Summer Program": false, "Latitude": "44.2234", "Registration Fee": "$245", "Sections": ["Troop"], "Longitude": "-76.651"}, {"Meeting Day": "Wednesday", "Meeting Location": "CHURCH OF Jesus Christ Of LATTER DAY SAINTS", "Name": "11th Bowmanville A", "Meeting Time": "7:00 PM", "Summer Program": false, "Latitude": "43.9099", "Registration Fee": "$230", "Sections": ["Troop"], "Longitude": "-78.705"}, {"Meeting Day": "Wednesday", "Meeting Location": "St. Francis of Assisi Catholic Elementary School ", "Name": "1st Newcastle A", "Meeting Time": "6:30 PM", "Summer Program": false, "Latitude": "43.9152", "Registration Fee": "$240", "Sections": ["Troop"], "Longitude": "-78.5836"}, {"Meeting Day": "Monday", "Meeting Location": "2000, Regent Blvd,Saint-Hubert,Q.C.", "Name": "1st Greenfield Park Kaniatario", "Meeting Time": "7:00 PM", "Summer Program": false, "Latitude": "45.4913", "Registration Fee": "$230", "Sections": ["Troop"], "Longitude": "-73.4681"}, {"Meeting Day": "Wednesday", "Meeting Location": "Joyceville Public School, Joyceville, ON", "Name": "1st Joyceville", "Meeting Time": "6:00 PM", "Summer Program": true, "Latitude": "44.3436", "Registration Fee": "$245", "Sections": ["Troop"], "Longitude": "-76.3337"}, {"Meeting Day": "Tuesday", "Meeting Location": "Albert Schweitzer School", "Name": "1st Mt. Bruno", "Meeting Time": "7:00 PM", "Summer Program": false, "Latitude": "45.5273", "Registration Fee": "$240", "Sections": ["Troop"], "Longitude": "-73.3575"}, {"Meeting Day": "Tuesday", "Meeting Location": "Royal Canadian Legion", "Name": "2nd Spencerville", "Meeting Time": "6:30 PM", "Summer Program": false, "Latitude": "44.8457", "Registration Fee": "$230", "Sections": ["Troop"], "Longitude": "-75.5474"}, {"Meeting Day": "Thursday", "Meeting Location": "Bridgenorth United Church", "Name": "1st Bridgenorth", "Meeting Time": "7:00 PM", "Summer Program": false, "Latitude": "44.3787", "Registration Fee": "$240", "Sections": ["Troop"], "Longitude": "-78.3831"}, {"Meeting Day": "Tuesday", "Meeting Location": "Chesley Community School", "Name": "1st Chesley A", "Meeting Time": "7:00 PM", "Summer Program": false, "Latitude": "44.3076", "Registration Fee": "$230", "Sections": ["Troop"], "Longitude": "-81.098"}, {"Meeting Day": "Tuesday", "Meeting Location": "St. Gregory Catholic School", "Name": "Carleton Place St Gregory's", "Meeting Time": "6:30 PM", "Summer Program": false, "Latitude": "45.1362", "Registration Fee": "$270", "Sections": ["Troop"], "Longitude": "-76.1613"}, {"Meeting Day": "Tuesday", "Meeting Location": "Pleasant Park Public School", "Name": "104th Ottawa", "Meeting Time": "6:00 PM", "Summer Program": false, "Latitude": "45.394", "Registration Fee": "$285", "Sections": ["Troop"], "Longitude": "-75.6477"}, {"Meeting Day": "Monday", "Meeting Location": "Fallingbrook Community Elementary School", "Name": "4th Orleans Dragon", "Meeting Time": "6:30 PM", "Summer Program": false, "Latitude": "45.4808", "Registration Fee": "$260", "Sections": ["Troop"], "Longitude": "-75.487"}, {"Meeting Day": "Wednesday", "Meeting Location": "Grace United Church", "Name": "5th Hanover ", "Meeting Time": "6:30 PM", "Summer Program": false, "Latitude": "44.1514", "Registration Fee": "$230", "Sections": ["Troop"], "Longitude": "-81.0261"}, {"Meeting Day": "Friday", "Meeting Location": "1897, Avenue de l'Eglise, St-Laurent, QC H4M 1E6", "Name": "Lien Doan Lac Viet", "Meeting Time": "7:30 PM", "Summer Program": false, "Latitude": "45.5018", "Registration Fee": "$295", "Sections": ["Troop"], "Longitude": "-73.6768"}, {"Meeting Day": "Wednesday", "Meeting Location": "St. Benedict's", "Name": "25th Nepean B", "Meeting Time": "7:00 PM", "Summer Program": false, "Latitude": "45.2437", "Registration Fee": "$265", "Sections": ["Troop"], "Longitude": "-75.7352"}, {"Meeting Day": "Wednesday", "Meeting Location": "Trinity Anglican Church Hall", "Name": "3rd Cornwall", "Meeting Time": "7:00 PM", "Summer Program": false, "Latitude": "45.0177", "Registration Fee": "$230", "Sections": ["Troop"], "Longitude": "-74.7309"}, {"Meeting Day": "Monday", "Meeting Location": "The Civitan Hall Perth", "Name": "Perth Civitan", "Meeting Time": "7:30 PM", "Summer Program": false, "Latitude": "44.9818", "Registration Fee": "$230", "Sections": ["Troop"], "Longitude": "-75.7965"},