[{"Latitude": "45.8677", "Meeting Day": "Friday", "Meeting Time": "7:00 PM", "Meeting Location": "Church meetinghouse", "Longitude": "-72.5147", "Sections": ["Troop"], "Registration Fee": "$230", "Name": "SDJ Drummondville"}, {"Latitude": "44.6146", "Meeting Day": "Monday", "Meeting Time": "6:30 PM", "Meeting Location": "Eastern Passage Education Center", "Longitude": "-63.46", "Sections": ["Troop"], "Registration Fee": "$230", "Name": "3rd Eastern Passage"}, {"Latitude": "45.3903", "Meeting Day": "Thursday", "Meeting Time": "7:00 PM", "Meeting Location": "St Lawrence School - Champlain Pavillion", "Longitude": "-73.5277", "Sections": ["Troop"], "Registration Fee": "$230", "Name": "1st Candiac"}, {"Latitude": "47.4843", "Meeting Day": "Tuesday", "Meeting Time": "6:30 PM", "Meeting Location": "St. Edward's School", "Longitude": "-53.0281", "Sections": ["Troop"], "Registration Fee": "$290", "Name": "1st Conception Bay South"}, {"Latitude": "47.5637", "Meeting Day": "Tuesday", "Meeting Time": "7:30 PM", "Meeting Location": "St. Andrews Elementary", "Longitude": "-52.7548", "Sections": ["Troop"], "Registration Fee": "$230", "Name": "1st Macpherson"}, {"Latitude": "45.9097", "Meeting Day": "Monday", "Meeting Time": "7:15 PM", "Meeting Location": "St James Presbyterian Church", "Longitude": "-66.745", "Sections": ["Troop"], "Registration Fee": "$230", "Name": "2nd Hanwell"}, {"Latitude": "47.6176", "Meeting Day": "Tuesday", "Meeting Time": "6:15 PM", "Meeting Location": "Donald Eddy Memorial Hall", "Longitude": "-65.6488", "Sections": ["Troop"], "Registration Fee": "$230", "Name": "1st United"}, {"Latitude": "45.0622", "Meeting Day": "Tuesday", "Meeting Time": "6:30 PM", "Meeting Location": "Gays River United Church", "Longitude": "-63.4243", "Sections": ["Troop"], "Registration Fee": "$230", "Name": "1st Gay's River A"}, {"Latitude": "45.4821", "Meeting Day": "Tuesday", "Meeting Time": "7:00 PM", "Meeting Location": "Chapelle de l'Eglise", "Longitude": "-73.471", "Sections": ["Troop"], "Registration Fee": "$230", "Name": "SDJ Lemoyne"}, {"Latitude": "45.423", "Meeting Day": "Tuesday", "Meeting Time": "6:30 PM", "Meeting Location": "John Paul II Elementary School", "Longitude": "-75.601", "Sections": ["Troop"], "Registration Fee": "$275", "Name": "1st Greenwood Sea Troop"}, {"Latitude": "46.5945", "Meeting Day": "Wednesday", "Meeting Time": "6:00 PM", "Meeting Location": "Valley View Public School", "Longitude": "-81.0169", "Sections": ["Troop"], "Registration Fee": "$265", "Name": "1st Valley Scout"}, {"Latitude": "45.4053", "Meeting Day": "Wednesday", "Meeting Time": "6:30 PM", "Meeting Location": "Red Barn Facility", "Longitude": "-73.9245", "Sections": ["Troop"], "Registration Fee": "$295", "Name": "1st Baie D'Urfe"}, {"Latitude": "45.3959", "Meeting Day": "Tuesday", "Meeting Time": "6:45 PM", "Meeting Location": "Southminster United Church", "Longitude": "-75.6762", "Sections": ["Troop"], "Registration Fee": "$260", "Name": "17th Ottawa"}, {"Latitude": "45.5018", "Meeting Day": "Friday", "Meeting Time": "7:30 PM", "Meeting Location": "1897, Avenue de l'Eglise, St-Laurent, QC H4M 1E6", "Longitude": "-73.6768", "Sections": ["Troop"], "Registration Fee": "$295", "Name": "Lien Doan Lac Viet"}, {"Latitude": "45.0742", "Meeting Day": "Wednesday", "Meeting Time": "6:00 PM", "Meeting Location": "Bird's Creek Community Centre", "Longitude": "-77.9003", "Sections": ["Troop"], "Registration Fee": "$255", "Name": "1st Bancroft"}, {"Latitude": "45.9607", "Meeting Day": "Tuesday", "Meeting Time": "7:00 PM", "Meeting Location": "St. Anne's Christ Church (Parish) Church", "Longitude": "-66.6482", "Sections": ["Troop"], "Registration Fee": "$230", "Name": "7th Fredericton"}, {"Latitude": "45.3774", "Meeting Day": "Wednesday", "Meeting Time": "6:30 PM", "Meeting Location": "St. David's United Church", "Longitude": "-63.2556", "Sections": ["Troop"], "Registration Fee": "$230", "Name": "2nd Bible Hill A"}, {"Latitude": "45.6168", "Meeting Day": "Wednesday", "Meeting Time": "6:45 PM", "Meeting Location": "\u00c9cole Gaston-Pilon", "Longitude": "-73.8557", "Sections": ["Troop"], "Registration Fee": "$230", "Name": "1st Boisbriand"}, {"Latitude": "45.4389", "Meeting Day": "Tuesday", "Meeting Time": "6:30 PM", "Meeting Location": "Queen Elizabeth School", "Longitude": "-75.6455", "Sections": ["Troop"], "Registration Fee": "$280", "Name": "63rd Ottawa"}, {"Latitude": "44.6663", "Meeting Day": "Wednesday", "Meeting Time": "7:00 PM", "Meeting Location": "Colby Village Elementary School", "Longitude": "-63.4851", "Sections": ["Troop"], "Registration Fee": "$235", "Name": "2nd Cole Harbour"}, {"Latitude": "44.6774", "Meeting Day": "Thursday", "Meeting Time": "6:45 PM", "Meeting Location": "Woodlawn United Church, Brick Building", "Longitude": "-63.5275", "Sections": ["Troop"], "Registration Fee": "$230", "Name": "1st Woodlawn A"}, {"Latitude": "45.0341", "Meeting Day": "Wednesday", "Meeting Time": "6:30 PM", "Meeting Location": "Uniacke Fire Hall 654 1 Hwy.", "Longitude": "-63.871", "Sections": ["Troop"], "Registration Fee": "$230", "Name": "1st Uniacke A"}, {"Latitude": "45.4548", "Meeting Day": "Monday", "Meeting Time": "7:00 PM", "Meeting Location": "St. John Fisher Church", "Longitude": "-73.7904", "Sections": ["Troop"], "Registration Fee": "$260", "Name": "1st Valois United"}, {"Latitude": "45.0885", "Meeting Day": "Thursday", "Meeting Time": "7:00 PM", "Meeting Location": "Huntingdon Academy (GYM)", "Longitude": "-74.1735", "Sections": ["Troop"], "Registration Fee": "$240", "Name": "1st Huntingdon"}, {"Latitude": "45.0626", "Meeting Day": "Tuesday", "Meeting Time": "6:30 PM", "Meeting Location": "Gaspereau Elementary School", "Longitude": "-64.3514", "Sections": ["Troop"], "Registration Fee": "$230", "Name": "1st Gaspereau A"}, {"Latitude": "47.7205", "Meeting Day": "Tuesday", "Meeting Time": "6:30 PM", "Meeting Location": "Knights of Columbus Hall", "Longitude": "-53.224", "Sections": ["Troop"], "Registration Fee": "$230", "Name": "1st Carbonear"}, {"Latitude": "45.3659", "Meeting Day": "Thursday", "Meeting Time": "7:00 PM", "Meeting Location": "First United Church", "Longitude": "-63.2813", "Sections": ["Troop"], "Registration Fee": "$230", "Name": "2nd Truro A"}, {"Latitude": "45.898", "Meeting Day": "Tuesday", "Meeting Time": "6:30 PM", "Meeting Location": "Saint Francis of Assisi", "Longitude": "-66.5723", "Sections": ["Troop"], "Registration Fee": "$230", "Name": "1st Lincoln Lighthouse"}, {"Latitude": "45.0914", "Meeting Day": "Monday", "Meeting Time": "6:30 PM", "Meeting Location": "Wolfville Baptist Church", "Longitude": "-64.3632", "Sections": ["Troop"], "Registration Fee": "$230", "Name": "1st Wolfville A"}, {"Latitude": "45.2583", "Meeting Day": "Monday", "Meeting Time": "6:00 PM", "Meeting Location": "Princess Elizabeth School", "Longitude": "-72.1484", "Sections": ["Troop"], "Registration Fee": "$230", "Name": "4th Lake Magog"}, {"Latitude": "46.2679", "Meeting Day": "Tuesday", "Meeting Time": "6:30 PM", "Meeting Location": "West Royalty Community centre", "Longitude": "-63.1585", "Sections": ["Troop"], "Registration Fee": "$230", "Name": "West Royalty"}, {"Latitude": "45.2492", "Meeting Day": "Monday", "Meeting Time": "6:30 PM", "Meeting Location": "St Marks United Church", "Longitude": "-66.0867", "Sections": ["Troop"], "Registration Fee": "$230", "Name": "St. Marks United"}, {"Latitude": "47.593", "Meeting Day": "Monday", "Meeting Time": "7:00 PM", "Meeting Location": "MacDonald Drive Elementary", "Longitude": "-52.7128", "Sections": ["Troop"], "Registration Fee": "$230", "Name": "1st Macdonald Drive"}, {"Latitude": "45.4447", "Meeting Day": "Monday", "Meeting Time": "7:30 PM", "Meeting Location": "DSUC (Basement hall)", "Longitude": "-73.769", "Sections": ["Troop"], "Registration Fee": "$230", "Name": "1st Strathmore Troop"}, {"Latitude": "45.5273", "Meeting Day": "Tuesday", "Meeting Time": "7:00 PM", "Meeting Location": "Albert Schweitzer School", "Longitude": "-73.3575", "Sections": ["Troop"], "Registration Fee": "$240", "Name": "1st Mt. Bruno"}, {"Latitude": "45.375", "Meeting Day": "Monday", "Meeting Time": "6:45 PM", "Meeting Location": "Woodroffe United Church", "Longitude": "-75.7735", "Sections": ["Troop"], "Registration Fee": "$295", "Name": "96th Ottawa"}, {"Latitude": "45.7496", "Meeting Day": "Thursday", "Meeting Time": "6:30 PM", "Meeting Location": "\u00c9cole Mer-et-Monde", "Longitude": "-74.0592", "Sections": ["Troop"], "Registration Fee": "$230", "Name": "Riviere du Nord"}, {"Latitude": "45.7239", "Meeting Day": "Tuesday", "Meeting Time": "6:30 PM", "Meeting Location": "Basement", "Longitude": "-65.5146", "Sections": ["Troop"], "Registration Fee": "$230", "Name": "1st St. Paul's United"}, {"Latitude": "45.4562", "Meeting Day": "Tuesday", "Meeting Time": "6:30 PM", "Meeting Location": "Chalet Arthur Seguin ", "Longitude": "-73.8053", "Sections": ["Troop"], "Registration Fee": "$230", "Name": "1st Lakeside Heights"}, {"Latitude": "46.0854", "Meeting Day": "Thursday", "Meeting Time": "7:00 PM", "Meeting Location": "Rotary Lodge, Centennial Park", "Longitude": "-64.81", "Sections": ["Troop"], "Registration Fee": "$230", "Name": "1st Jones Lake"}, {"Latitude": "53.3083", "Meeting Day": "Wednesday", "Meeting Time": "6:30 PM", "Meeting Location": "Happy Valley United Church", "Longitude": "-60.3789", "Sections": ["Troop"], "Registration Fee": "$230", "Name": "1st Happy Valley"}, {"Latitude": "44.6903", "Meeting Day": "Wednesday", "Meeting Time": "7:00 PM", "Meeting Location": "Estabrooks Community Centre", "Longitude": "-63.883", "Sections": ["Troop"], "Registration Fee": "$255", "Name": "1st Five Island Lake"}, {"Latitude": "44.7735", "Meeting Day": "Monday", "Meeting Time": "7:00 PM", "Meeting Location": "Lion's Den", "Longitude": "-63.6898", "Sections": ["Troop"], "Registration Fee": "$240", "Name": "1st Sackville A"}, {"Latitude": "45.5296", "Meeting Day": "Thursday", "Meeting Time": "7:00 PM", "Meeting Location": "St. Jude School", "Longitude": "-74.6467", "Sections": ["Troop"], "Registration Fee": "$230", "Name": "1st Vankleek Hill"}, {"Latitude": "47.5238", "Meeting Day": "Tuesday", "Meeting Time": "7:30 PM", "Meeting Location": "Mary Queen of the World", "Longitude": "-52.7853", "Sections": ["Troop"], "Registration Fee": "$230", "Name": "1st Mount Pearl Lions Scout"}, {"Latitude": "49.072", "Meeting Day": "Tuesday", "Meeting Time": "6:45 PM", "Meeting Location": "Cochrane Scout Hall", "Longitude": "-81.0177", "Sections": ["Troop"], "Registration Fee": "$270", "Name": "1st Cochrane Troop"}, {"Latitude": "45.0782", "Meeting Day": "Thursday", "Meeting Time": "6:30 PM", "Meeting Location": "Scout Hall", "Longitude": "-67.049", "Sections": ["Troop"], "Registration Fee": "$230", "Name": "1st St. Andrews Troop"}, {"Latitude": "44.6748", "Meeting Day": "Monday", "Meeting Time": "7:00 PM", "Meeting Location": "Rockingham United Church Hall", "Longitude": "-63.6497", "Sections": ["Troop"], "Registration Fee": "$265", "Name": "1st Clayton Park A"}, {"Latitude": "44.8184", "Meeting Day": "Tuesday", "Meeting Time": "6:30 PM", "Meeting Location": "Ash Lee Jefferson", "Longitude": "-63.6156", "Sections": ["Troop"], "Registration Fee": "$240", "Name": "1st Riverlake A"}, {"Latitude": "45.5145", "Meeting Day": "Thursday", "Meeting Time": "6:30 PM", "Meeting Location": "RJ Kennedy Community Centre", "Longitude": "-75.4041", "Sections": ["Troop"], "Registration Fee": "$230", "Name": "1st Cumberland Troop"}, {"Latitude": "50.6324", "Meeting Day": "Thursday", "Meeting Time": "7:00 PM", "Meeting Location": "French Shore Academy", "Longitude": "-57.2706", "Sections": ["Troop"], "Registration Fee": "$230", "Name": "1st Port Saunders"}, {"Latitude": "44.6427", "Meeting Day": "Thursday", "Meeting Time": "7:00 PM", "Meeting Location": "St. James Anglican Church Hall", "Longitude": "-63.6217", "Sections": ["Troop"], "Registration Fee": "$245", "Name": "1st Armdale A"}, {"Latitude": "49.5572", "Meeting Day": "Tuesday", "Meeting Time": "7:45 PM", "Meeting Location": "New World Island Academy", "Longitude": "-54.7279", "Sections": ["Troop"], "Registration Fee": "$230", "Name": "1st Iceberg Alley"}, {"Latitude": "45.4727", "Meeting Day": "Tuesday", "Meeting Time": "7:00 PM", "Meeting Location": "Westminster chalet", "Longitude": "-73.8443", "Sections": ["Troop"], "Registration Fee": "$280", "Name": "1st Fairview Centennial"}, {"Latitude": "46.1133", "Meeting Day": "Thursday", "Meeting Time": "6:00 PM", "Meeting Location": "Evergreen Park School", "Longitude": "-64.862", "Sections": ["Troop"], "Registration Fee": "$230", "Name": "1st Evergreen Park"}, {"Latitude": "49.0132", "Meeting Day": "Monday", "Meeting Time": "6:30 PM", "Meeting Location": "Lions Club", "Longitude": "-57.5788", "Sections": ["Troop"], "Registration Fee": "$230", "Name": "1st Pasadena Scout"}, {"Latitude": "45.2805", "Meeting Day": "Wednesday", "Meeting Time": "6:30 PM", "Meeting Location": "Morna Heights School", "Longitude": "-66.1592", "Sections": ["Troop"], "Registration Fee": "$230", "Name": "1st Ketepec"}, {"Latitude": "45.4247", "Meeting Day": "Monday", "Meeting Time": "6:15 PM", "Meeting Location": "Pierre Elliot Trudeau Elementary School", "Longitude": "-75.729", "Sections": ["Troop"], "Registration Fee": "$260", "Name": "1st Hull Troop"}, {"Latitude": "45.3999", "Meeting Day": "Thursday", "Meeting Time": "7:30 PM", "Meeting Location": "Connaught Elementary School", "Longitude": "-75.7272", "Sections": ["Troop"], "Registration Fee": "$260", "Name": "32nd Ottawa"}, {"Latitude": "45.4623", "Meeting Day": "Thursday", "Meeting Time": "7:00 PM", "Meeting Location": "Ecclestone Chalet", "Longitude": "-73.8582", "Sections": ["Troop"], "Registration Fee": "$245", "Name": "Kirkland Southwest"}, {"Latitude": "46.2065", "Meeting Day": "Thursday", "Meeting Time": "7:00 PM", "Meeting Location": "St. Matthew Wesley United Church Hall", "Longitude": "-60.2524", "Sections": ["Troop"], "Registration Fee": "$230", "Name": "1st North Sydney"}, {"Latitude": "45.1362", "Meeting Day": "Tuesday", "Meeting Time": "6:30 PM", "Meeting Location": "St. Gregory Catholic School", "Longitude": "-76.1613", "Sections": ["Troop"], "Registration Fee": "$270", "Name": "Carleton Place St Gregory's"}, {"Latitude": "45.3003", "Meeting Day": "Wednesday", "Meeting Time": "6:30 PM", "Meeting Location": "Silver Falls United Church", "Longitude": "-66.004", "Sections": ["Troop"], "Registration Fee": "$230", "Name": "11th Courtenay Silver Falls"}, {"Latitude": "45.4913", "Meeting Day": "Monday", "Meeting Time": "7:00 PM", "Meeting Location": "2000, Regent Blvd,Saint-Hubert,Q.C.", "Longitude": "-73.4681", "Sections": ["Troop"], "Registration Fee": "$230", "Name": "1st Greenfield Park Kaniatario"}, {"Latitude": "45.3916", "Meeting Day": "Thursday", "Meeting Time": "7:00 PM", "Meeting Location": "Lord Aylmer School (Junior Campus)", "Longitude": "-75.8399", "Sections": ["Troop"], "Registration Fee": "$320", "Name": "1st Aylmer Troop A"}, {"Latitude": "45.3679", "Meeting Day": "Tuesday", "Meeting Time": "7:00 PM", "Meeting Location": "St. George's Anglican Church", "Longitude": "-73.7357", "Sections": ["Troop"], "Registration Fee": "$280", "Name": "Chateauguay"}, {"Latitude": "45.9554", "Meeting Day": "Monday", "Meeting Time": "6:30 PM", "Meeting Location": "Cathedral Memorial Hall", "Longitude": "-66.6374", "Sections": ["Troop"], "Registration Fee": "$230", "Name": "1st St. Margaret's A"}, {"Latitude": "45.1794", "Meeting Day": "Monday", "Meeting Time": "6:30 PM", "Meeting Location": "Holy Name of Mary School", "Longitude": "-76.1261", "Sections": ["Troop"], "Registration Fee": "$230", "Name": "2nd Almonte"}, {"Latitude": "44.6823", "Meeting Day": "Thursday", "Meeting Time": "6:45 PM", "Meeting Location": "Camp Harris", "Longitude": "-63.3821", "Sections": ["Troop"], "Registration Fee": "$240", "Name": "1st Lawrencetown (HRM) A"}, {"Latitude": "44.7975", "Meeting Day": "Monday", "Meeting Time": "6:30 PM", "Meeting Location": "Harry R. Hamilton Elementary School", "Longitude": "-63.7277", "Sections": ["Troop"], "Registration Fee": "$230", "Name": "6th Sackville"}, {"Latitude": "45.1753", "Meeting Day": "Thursday", "Meeting Time": "7:00 PM", "Meeting Location": "Howick Elementary School", "Longitude": "-73.8611", "Sections": ["Troop"], "Registration Fee": "$230", "Name": "1st Howick"}, {"Latitude": "45.0909", "Meeting Day": "Thursday", "Meeting Time": "7:00 PM", "Meeting Location": "Berwick Baptist Church", "Longitude": "-64.8233", "Sections": ["Troop"], "Registration Fee": "$230", "Name": "2nd Berwick A"}, {"Latitude": "44.5652", "Meeting Day": "Thursday", "Meeting Time": "6:30 PM", "Meeting Location": "Prospect Road Elementry", "Longitude": "-63.7328", "Sections": ["Troop"], "Registration Fee": "$230", "Name": "1st Prospect Road"}, {"Latitude": "46.4968", "Meeting Day": "Monday", "Meeting Time": "6:30 PM", "Meeting Location": "Central NB Academy ", "Longitude": "-66.2943", "Sections": ["Troop"], "Registration Fee": "$230", "Name": "1st Upper Miramichi"}, {"Latitude": "46.0952", "Meeting Day": "Wednesday", "Meeting Time": "6:30 PM", "Meeting Location": "St. Mary's School", "Longitude": "-77.4912", "Sections": ["Troop"], "Registration Fee": "$230", "Name": "1st Deep River"}, {"Latitude": "47.5065", "Meeting Day": "Monday", "Meeting Time": "7:30 PM", "Meeting Location": "Mary Queen of Peace School", "Longitude": "-52.806", "Sections": ["Troop"], "Registration Fee": "$235", "Name": "1st Mary Queen Of Peace"}, {"Latitude": "45.8932", "Meeting Day": "Monday", "Meeting Time": "6:30 PM", "Meeting Location": "Norman Behnke Hall", "Longitude": "-77.277", "Sections": ["Troop"], "Registration Fee": "$230", "Name": "4th Petawawa A"}, {"Latitude": "45.4439", "Meeting Day": "Wednesday", "Meeting Time": "7:15 PM", "Meeting Location": "7110 Newman Lasalle", "Longitude": "-73.6144", "Sections": ["Troop"], "Registration Fee": "$230", "Name": "LDS Lasalle"}, {"Latitude": "44.7898", "Meeting Day": "Thursday", "Meeting Time": "7:15 PM", "Meeting Location": "Millwood Elementary School", "Longitude": "-63.706", "Sections": ["Troop"], "Registration Fee": "$230", "Name": "4th Sackville"}, {"Latitude": "44.7314", "Meeting Day": "Wednesday", "Meeting Time": "7:00 PM", "Meeting Location": "Hammonds Plains Community Hall", "Longitude": "-63.7566", "Sections": ["Troop"], "Registration Fee": "$230", "Name": "1st Hammonds Plains"}, {"Latitude": "45.8849", "Meeting Day": "Monday", "Meeting Time": "7:00 PM", "Meeting Location": "Faith Baptist Church", "Longitude": "-66.6889", "Sections": ["Troop"], "Registration Fee": "$230", "Name": "1st New Maryland A"}, {"Latitude": "45.4317", "Meeting Day": "Monday", "Meeting Time": "6:30 PM", "Meeting Location": "Emily Carr Middle School", "Longitude": "-75.5646", "Sections": ["Troop"], "Registration Fee": "$255", "Name": "1st Blackburn Hamlet"}, {"Latitude": "45.9581", "Meeting Day": "Tuesday", "Meeting Time": "6:00 PM", "Meeting Location": "St Andrews Presbyterian Church Hall", "Longitude": "-66.6439", "Sections": ["Troop"], "Registration Fee": "$230", "Name": "5th Fredericton"}, {"Latitude": "46.3697", "Meeting Day": "Thursday", "Meeting Time": "6:30 PM", "Meeting Location": "x", "Longitude": "-72.5397", "Sections": ["Troop"], "Registration Fee": "$255", "Name": "1st Three Rivers"}, {"Latitude": "47.5246", "Meeting Day": "Thursday", "Meeting Time": "7:00 PM", "Meeting Location": "Villanova Jr High", "Longitude": "-52.9458", "Sections": ["Troop"], "Registration Fee": "$230", "Name": "1st Topsail Troop"}, {"Latitude": "45.3675", "Meeting Day": "Thursday", "Meeting Time": "6:30 PM", "Meeting Location": "St.Isidore Catholic Elementary School", "Longitude": "-75.9485", "Sections": ["Troop"], "Registration Fee": "$250", "Name": "7th Kanata"}, {"Latitude": "45.7698", "Meeting Day": "Sunday", "Meeting Time": "6:30 PM", "Meeting Location": "FENWICK UNITED CHURCH", "Longitude": "-64.2032", "Sections": ["Troop"], "Registration Fee": "$230", "Name": "1st Fenwick A"}, {"Latitude": "47.5246", "Meeting Day": "Various", "Meeting Time": "7:00 PM", "Meeting Location": "Topsail Elementary", "Longitude": "-52.9458", "Sections": ["Troop"], "Registration Fee": "$230", "Name": "1st Topsail Troop"}, {"Latitude": "45.9896", "Meeting Day": "Tuesday", "Meeting Time": "7:00 PM", "Meeting Location": "Marysville Baptist Church", "Longitude": "-66.5908", "Sections": ["Troop"], "Registration Fee": "$230", "Name": "1st Marysville"}, {"Latitude": "45.4675", "Meeting Day": "Wednesday", "Meeting Time": "6:45 PM", "Meeting Location": "St-Thomas School", "Longitude": "-74.1603", "Sections": ["Troop"], "Registration Fee": "$320", "Name": "1st Cavagnal (Hudson)"}, {"Latitude": "45.3929", "Meeting Day": "Thursday", "Meeting Time": "6:45 PM", "Meeting Location": "Kinburn Community Centre", "Longitude": "-76.187", "Sections": ["Troop"], "Registration Fee": "$245", "Name": "1st West Carleton"}, {"Latitude": "45.7312", "Meeting Day": "Monday", "Meeting Time": "6:00 PM", "Meeting Location": "Centre La Maison des Amis", "Longitude": "-73.6498", "Sections": ["Troop"], "Registration Fee": "$250", "Name": "1st Mascouche Heights"}, {"Latitude": "46.3697", "Meeting Day": "Thursday", "Meeting Time": "6:30 PM", "Meeting Location": "x", "Longitude": "-72.5397", "Sections": ["Troop"], "Registration Fee": "$255", "Name": "1st Three Rivers"}, {"Latitude": "45.5348", "Meeting Day": "Monday", "Meeting Time": "7:00 PM", "Meeting Location": "Campeau Center", "Longitude": "-73.7383", "Sections": ["Troop"], "Registration Fee": "$275", "Name": "1st St. Simon's Blackfoot"}, {"Latitude": "45.4808", "Meeting Day": "Monday", "Meeting Time": "6:30 PM", "Meeting Location": "Fallingbrook Community Elementary School", "Longitude": "-75.487", "Sections": ["Troop"], "Registration Fee": "$260", "Name": "4th Orleans Dragon"}, {"Latitude": "45.6213", "Meeting Day": "Wednesday", "Meeting Time": "6:30 PM", "Meeting Location": "Burk's Falls Baptist Church", "Longitude": "-79.4045", "Sections": ["Troop"], "Registration Fee": "$230", "Name": "1st Burks Falls A"}, {"Latitude": "45.6646", "Meeting Day": "Various", "Meeting Time": "6:30 PM", "Meeting Location": "Springhill Baptist Church", "Longitude": "-64.0345", "Sections": ["Troop"], "Registration Fee": "$230", "Name": "2nd Springhill Scout"}, {"Latitude": "45.6317", "Meeting Day": "Monday", "Meeting Time": "6:30 PM", "Meeting Location": "Church of Good Shepherd", "Longitude": "-75.9254", "Sections": ["Troop"], "Registration Fee": "$230", "Name": "1st Wakefield"}, {"Latitude": "47.6415", "Meeting Day": "Thursday", "Meeting Time": "6:30 PM", "Meeting Location": "Upper Three Corner Sports Facility - Bauline Line, Torbay", "Longitude": "-52.7682", "Sections": ["Troop"], "Registration Fee": "$265", "Name": "1st Torbay Scout"}, {"Latitude": "45.4036", "Meeting Day": "Tuesday", "Meeting Time": "7:00 PM", "Meeting Location": "Corpus Christi School", "Longitude": "-75.6925", "Sections": ["Troop"], "Registration Fee": "$230", "Name": "36th Ottawa"}, {"Latitude": "44.7403", "Meeting Day": "Monday", "Meeting Time": "7:00 PM", "Meeting Location": "O'Connel Elementry School", "Longitude": "-63.3206", "Sections": ["Troop"], "Registration Fee": "$230", "Name": "1st Chezzetcook A"}, {"Latitude": "45.9607", "Meeting Day": "Tuesday", "Meeting Time": "7:00 PM", "Meeting Location": "Christ Church Parish Hall (245 Westmorland St)", "Longitude": "-66.6482", "Sections": ["Troop"], "Registration Fee": "$230", "Name": "3rd Fredericton"}, {"Latitude": "46.0902", "Meeting Day": "Monday", "Meeting Time": "7:00 PM", "Meeting Location": "Church Hall", "Longitude": "-64.7787", "Sections": ["Troop"], "Registration Fee": "$230", "Name": "1st Moncton St. George's"}, {"Latitude": "45.3875", "Meeting Day": "Monday", "Meeting Time": "6:30 PM", "Meeting Location": "St. Trinitie School", "Longitude": "-74.0192", "Sections": ["Troop"], "Registration Fee": "$265", "Name": "1st Vaudreuil Dorion Blazing Outbacks"}, {"Latitude": "44.6678", "Meeting Day": "Tuesday", "Meeting Time": "7:00 PM", "Meeting Location": "St James Church Hall", "Longitude": "-63.5633", "Sections": ["Troop"], "Registration Fee": "$230", "Name": "1st Dartmouth "}, {"Latitude": "45.5656", "Meeting Day": "Tuesday", "Meeting Time": "7:00 PM", "Meeting Location": "chapelle de l'\u00c9glise", "Longitude": "-73.4896", "Sections": ["Troop"], "Registration Fee": "$230", "Name": "SDJ Longueuil"}, {"Latitude": "47.5362", "Meeting Day": "Wednesday", "Meeting Time": "7:00 PM", "Meeting Location": "Elizabeth Park Elementary", "Longitude": "-52.8523", "Sections": ["Troop"], "Registration Fee": "$260", "Name": "1st Paradise"}, {"Latitude": "44.6779", "Meeting Day": "Monday", "Meeting Time": "7:00 PM", "Meeting Location": "George Bissett Elementary School", "Longitude": "-63.4871", "Sections": ["Troop"], "Registration Fee": "$230", "Name": "6th Cole Harbour A"}, {"Latitude": "45.3329", "Meeting Day": "Monday", "Meeting Time": "6:00 PM", "Meeting Location": "Fanning Education Centre/Canso Academy", "Longitude": "-60.9854", "Sections": ["Troop"], "Registration Fee": "$230", "Name": "5th Canso A"}, {"Latitude": "46.5319", "Meeting Day": "Monday", "Meeting Time": "6:30 PM", "Meeting Location": "ERNIE CHECKRIS Public School", "Longitude": "-80.953", "Sections": ["Troop"], "Registration Fee": "$330", "Name": "23rd Sudbury"}, {"Latitude": "45.2583", "Meeting Day": "Monday", "Meeting Time": "6:00 PM", "Meeting Location": "Princess Elizabeth School", "Longitude": "-72.1484", "Sections": ["Troop"], "Registration Fee": "$230", "Name": "4th Lake Magog"}, {"Latitude": "45.9815", "Meeting Day": "Monday", "Meeting Time": "7:00 PM", "Meeting Location": "St Johns Anglican Church Hall", "Longitude": "-66.6609", "Sections": ["Troop"], "Registration Fee": "$230", "Name": "1st Nashwaaksis"}, {"Latitude": "44.8562", "Meeting Day": "Thursday", "Meeting Time": "7:00 PM", "Meeting Location": "HTB Fun Forest Camp", "Longitude": "-63.6826", "Sections": ["Troop"], "Registration Fee": "$230", "Name": "2nd Beaver Bank Scout"}, {"Latitude": "45.5367", "Meeting Day": "Wednesday", "Meeting Time": "6:30 PM", "Meeting Location": "Socrates V Gym", "Longitude": "-73.7665", "Sections": ["Troop"], "Registration Fee": "$230", "Name": "Hellenic Scouting Group Pavlides"}, {"Latitude": "44.3737", "Meeting Day": "Monday", "Meeting Time": "6:30 PM", "Meeting Location": "87 Hillcrest St, Bridgewater, NS", "Longitude": "-64.524", "Sections": ["Troop"], "Registration Fee": "$230", "Name": "3rd Bridgewater A"}, {"Latitude": "44.6683", "Meeting Day": "Thursday", "Meeting Time": "6:30 PM", "Meeting Location": "St Margarets of Scotland Church", "Longitude": "-63.6149", "Sections": ["Troop"], "Registration Fee": "$230", "Name": "22nd Halifax A"}, {"Latitude": "46.3101", "Meeting Day": "Thursday", "Meeting Time": "7:00 PM", "Meeting Location": "Trinity United Church", "Longitude": "-79.4623", "Sections": ["Troop"], "Registration Fee": "$240", "Name": "1st North Bay"}, {"Latitude": "45.9827", "Meeting Day": "Monday", "Meeting Time": "6:30 PM", "Meeting Location": "Nashwaaksis United Church", "Longitude": "-66.6623", "Sections": ["Troop"], "Registration Fee": "$230", "Name": "2nd Nashwaaksis"}, {"Latitude": "45.4253", "Meeting Day": "Tuesday", "Meeting Time": "7:00 PM", "Meeting Location": "St. Luke's Church Hall", "Longitude": "-65.9609", "Sections": ["Troop"], "Registration Fee": "$230", "Name": "1st Gondola Point"}, {"Latitude": "47.5701", "Meeting Day": "Tuesday", "Meeting Time": "7:30 PM", "Meeting Location": "St. Philip's Intermediate School", "Longitude": "-52.8724", "Sections": ["Troop"], "Registration Fee": "$230", "Name": "1st Portugal Cove"}, {"Latitude": "45.5025", "Meeting Day": "Monday", "Meeting Time": "8:00 AM", "Meeting Location": "St. Lambert Elementary School", "Longitude": "-73.5104", "Sections": ["Troop"], "Registration Fee": "$230", "Name": "1st Greenfield Park"}, {"Latitude": "46.0491", "Meeting Day": "Thursday", "Meeting Time": "6:30 PM", "Meeting Location": "Claude D.Taylor School", "Longitude": "-64.818", "Sections": ["Troop"], "Registration Fee": "$230", "Name": "1st Riverview 4th Riverview Scout"}, {"Latitude": "45.6285", "Meeting Day": "Tuesday", "Meeting Time": "7:00 PM", "Meeting Location": "Rosemere Memorial Community Centre", "Longitude": "-73.7985", "Sections": ["Troop"], "Registration Fee": "$285", "Name": "1st Rosemere Memorial"}, {"Latitude": "44.6564", "Meeting Day": "Tuesday", "Meeting Time": "7:00 PM", "Meeting Location": "Fairview United Church Hall", "Longitude": "-63.632", "Sections": ["Troop"], "Registration Fee": "$230", "Name": "2nd Fairview A"}, {"Latitude": "48.4837", "Meeting Day": "Thursday", "Meeting Time": "6:00 PM", "Meeting Location": "St Joseph School", "Longitude": "-81.2061", "Sections": ["Troop"], "Registration Fee": "$230", "Name": "1st South Porcupine"}, {"Latitude": "45.9665", "Meeting Day": "Tuesday", "Meeting Time": "7:00 PM", "Meeting Location": "St Peter's Church Hall", "Longitude": "-66.7393", "Sections": ["Troop"], "Registration Fee": "$230", "Name": "1st Springhill"}, {"Latitude": "45.5508", "Meeting Day": "Friday", "Meeting Time": "7:00 PM", "Meeting Location": "Trinity United Church Hall", "Longitude": "-73.5818", "Sections": ["Troop"], "Registration Fee": "$255", "Name": "24th Montreal Trinity Rosemount"}, {"Latitude": "45.8386", "Meeting Day": "Wednesday", "Meeting Time": "6:30 PM", "Meeting Location": "Assiniboine Ave. Elementary", "Longitude": "-66.4778", "Sections": ["Troop"], "Registration Fee": "$230", "Name": "1st Oromocto"}, {"Latitude": "47.825", "Meeting Day": "Tuesday", "Meeting Time": "6:30 PM", "Meeting Location": "Living Way Church", "Longitude": "-79.8829", "Sections": ["Troop"], "Registration Fee": "$230", "Name": "Englehart"}, {"Latitude": "45.4594", "Meeting Day": "Tuesday", "Meeting Time": "6:30 PM", "Meeting Location": "Saint Kateri Tekakwitha ES", "Longitude": "-75.5224", "Sections": ["Troop"], "Registration Fee": "$270", "Name": "14th Gloucester Land"}, {"Latitude": "46.2107", "Meeting Day": "Wednesday", "Meeting Time": "7:00 PM", "Meeting Location": "Immaculate Conception Hall", "Longitude": "-59.9985", "Sections": ["Troop"], "Registration Fee": "$230", "Name": "1st Bridgeport Dominion A"}, {"Latitude": "45.4211", "Meeting Day": "Saturday", "Meeting Time": "1:00 PM", "Meeting Location": "Sts Peter & Paul - Closed Arabic Catholic Group", "Longitude": "-75.6643", "Sections": ["Troop"], "Registration Fee": "$280", "Name": "Sts. Peter and Paul"}, {"Latitude": "46.4379", "Meeting Day": "Sunday", "Meeting Time": "1:00 PM", "Meeting Location": "Kensington Legion", "Longitude": "-63.6346", "Sections": ["Troop"], "Registration Fee": "$230", "Name": "Kensington"}, {"Latitude": "45.2671", "Meeting Day": "Wednesday", "Meeting Time": "6:30 PM", "Meeting Location": "Russell High School - Gym B", "Longitude": "-75.364", "Sections": ["Troop"], "Registration Fee": "$255", "Name": "2nd Russell"}, {"Latitude": "45.3235", "Meeting Day": "Monday", "Meeting Time": "7:00 PM", "Meeting Location": "All Saints High School", "Longitude": "-75.9236", "Sections": ["Troop"], "Registration Fee": "$260", "Name": "1st Kanata Beaverbrook"}, {"Latitude": "45.455", "Meeting Day": "Tuesday", "Meeting Time": "7:30 PM", "Meeting Location": "Royal West Academy", "Longitude": "-73.6546", "Sections": ["Troop"], "Registration Fee": "$230", "Name": "1st Montreal West"}, {"Latitude": "47.4607", "Meeting Day": "Sunday", "Meeting Time": "6:30 PM", "Meeting Location": "Goulds Elementary", "Longitude": "-52.7721", "Sections": ["Troop"], "Registration Fee": "$230", "Name": "1st Goulds"}, {"Latitude": "45.0332", "Meeting Day": "Monday", "Meeting Time": "6:45 PM", "Meeting Location": "Aylesford Lions Hall", "Longitude": "-64.8396", "Sections": ["Troop"], "Registration Fee": "$230", "Name": "1st Aylesford A"}, {"Latitude": "45.6341", "Meeting Day": "Monday", "Meeting Time": "6:30 PM", "Meeting Location": "Cobden Public School", "Longitude": "-76.8622", "Sections": ["Troop"], "Registration Fee": "$230", "Name": "1st Cobden"}, {"Latitude": "48.4914", "Meeting Day": "Tuesday", "Meeting Time": "7:00 PM", "Meeting Location": "Port Union Lions Club", "Longitude": "-53.0794", "Sections": ["Troop"], "Registration Fee": "$230", "Name": "1st Port Union Lions"}, {"Latitude": "45.4822", "Meeting Day": "Monday", "Meeting Time": "6:30 PM", "Meeting Location": "St George's Anglican Church", "Longitude": "-75.6481", "Sections": ["Troop"], "Registration Fee": "$250", "Name": "2nd Gatineau"}, {"Latitude": "46.2336", "Meeting Day": "Wednesday", "Meeting Time": "6:30 PM", "Meeting Location": "Old Stratford Library", "Longitude": "-63.0937", "Sections": ["Troop"], "Registration Fee": "$230", "Name": "Stratford Scout"}, {"Latitude": "45.6268", "Meeting Day": "Thursday", "Meeting Time": "6:45 PM", "Meeting Location": "Saint Andrew Junior SChool", "Longitude": "-62.0059", "Sections": ["Troop"], "Registration Fee": "$230", "Name": "2nd Antigonish A"}, {"Latitude": "45.4876", "Meeting Day": "Monday", "Meeting Time": "7:00 PM", "Meeting Location": "Divine Infant Elementary School", "Longitude": "-75.5131", "Sections": ["Troop"], "Registration Fee": "$280", "Name": "3rd Orleans"}, {"Latitude": "45.5654", "Meeting Day": "Monday", "Meeting Time": "6:30 PM", "Meeting Location": "Ecole Village des Jeunes", "Longitude": "-73.9115", "Sections": ["Troop"], "Registration Fee": "$230", "Name": "1st St Eustache"}, {"Latitude": "45.6139", "Meeting Day": "Tuesday", "Meeting Time": "6:00 PM", "Meeting Location": "St. Mark's United Church", "Longitude": "-61.3595", "Sections": ["Troop"], "Registration Fee": "$230", "Name": "1st Port Hawkesbury"}, {"Latitude": "44.6089", "Meeting Day": "Monday", "Meeting Time": "7:00 PM", "Meeting Location": "Ocean View Elementary School", "Longitude": "-63.4743", "Sections": ["Troop"], "Registration Fee": "$230", "Name": "2nd Eastern Passage A"}, {"Latitude": "44.6591", "Meeting Day": "Monday", "Meeting Time": "6:30 PM", "Meeting Location": "Bay Community Centre", "Longitude": "-63.9041", "Sections": ["Troop"], "Registration Fee": "$230", "Name": "1st St Margarets Bay/Boutiliers A"}, {"Latitude": "45.3086", "Meeting Day": "Thursday", "Meeting Time": "6:30 PM", "Meeting Location": "Carp Ridge Eco-Wellness Centre", "Longitude": "-76.0368", "Sections": ["Troop"], "Registration Fee": "$280", "Name": "1st Carp"}, {"Latitude": "45.3637", "Meeting Day": "Wednesday", "Meeting Time": "6:30 PM", "Meeting Location": "St. Andrews United Church Duke & King", "Longitude": "-63.2857", "Sections": ["Troop"], "Registration Fee": "$230", "Name": "3rd Truro A"}, {"Latitude": "46.1448", "Meeting Day": "Wednesday", "Meeting Time": "7:00 PM", "Meeting Location": "Bethel United Church Hall (Corner of George & Brookland)", "Longitude": "-60.1972", "Sections": ["Troop"], "Registration Fee": "$230", "Name": "1st Sydney"}, {"Latitude": "44.995", "Meeting Day": "Tuesday", "Meeting Time": "6:30 PM", "Meeting Location": "Falmouth Elementary School", "Longitude": "-64.1665", "Sections": ["Troop"], "Registration Fee": "$230", "Name": "3rd Falmouth A"}, {"Latitude": "44.6105", "Meeting Day": "Wednesday", "Meeting Time": "7:00 PM", "Meeting Location": "St Pauls United Church", "Longitude": "-63.6239", "Sections": ["Troop"], "Registration Fee": "$230", "Name": "3rd Spryfield A"}, {"Latitude": "48.9545", "Meeting Day": "Thursday", "Meeting Time": "7:00 PM", "Meeting Location": "United Church Hall", "Longitude": "-54.6173", "Sections": ["Troop"], "Registration Fee": "$230", "Name": "1st United, Gander"}, {"Latitude": "45.898", "Meeting Day": "Tuesday", "Meeting Time": "6:30 PM", "Meeting Location": "Saint Francis of Assisi", "Longitude": "-66.5723", "Sections": ["Troop"], "Registration Fee": "$230", "Name": "1st Lincoln Lighthouse"}, {"Latitude": "45.4389", "Meeting Day": "Monday", "Meeting Time": "7:00 PM", "Meeting Location": "Westminster Presbyterian Church", "Longitude": "-75.6455", "Sections": ["Troop"], "Registration Fee": "$280", "Name": "3rd Ottawa"}, {"Latitude": "45.3724", "Meeting Day": "Wednesday", "Meeting Time": "7:00 PM", "Meeting Location": "\u00c9cole Notre-Dame de Lorette", "Longitude": "-73.9885", "Sections": ["Troop"], "Registration Fee": "$250", "Name": "1st Ile Perrot"}, {"Latitude": "43.8314", "Meeting Day": "Monday", "Meeting Time": "6:30 PM", "Meeting Location": "Holy Trinity Hall", "Longitude": "-66.1176", "Sections": ["Troop"], "Registration Fee": "$230", "Name": "2nd Yarmouth A"}, {"Latitude": "44.6351", "Meeting Day": "Thursday", "Meeting Time": "7:00 PM", "Meeting Location": "First Baptist Church Halifax", "Longitude": "-63.5956", "Sections": ["Troop"], "Registration Fee": "$240", "Name": "36th Halifax A"}, {"Latitude": "44.679", "Meeting Day": "Wednesday", "Meeting Time": "7:30 PM", "Meeting Location": "Iona Presbyterian Church", "Longitude": "-63.5085", "Sections": ["Troop"], "Registration Fee": "$230", "Name": "1st Portland Estates Scout"}, {"Latitude": "45.3951", "Meeting Day": "Tuesday", "Meeting Time": "8:00 PM", "Meeting Location": "252 Willow Street", "Longitude": "-64.2853", "Sections": ["Troop"], "Registration Fee": "$230", "Name": "1st Parrsboro Scout"}, {"Latitude": "46.2771", "Meeting Day": "Wednesday", "Meeting Time": "7:15 PM", "Meeting Location": "Malcolm Darrach Centre", "Longitude": "-63.1083", "Sections": ["Troop"], "Registration Fee": "$230", "Name": "1st East Royalty"}, {"Latitude": "44.644", "Meeting Day": "Tuesday", "Meeting Time": "7:00 PM", "Meeting Location": "Sacred Heart Church Hall", "Longitude": "-63.7082", "Sections": ["Troop"], "Registration Fee": "$245", "Name": "1st Timberlea A"}, {"Latitude": "46.422", "Meeting Day": "Wednesday", "Meeting Time": "6:30 PM", "Meeting Location": "St. Eleanors Fire/Community Hall", "Longitude": "-63.8114", "Sections": ["Troop"], "Registration Fee": "$230", "Name": "Summerside"}, {"Latitude": "45.5389", "Meeting Day": "Monday", "Meeting Time": "7:00 PM", "Meeting Location": "John Caboto School", "Longitude": "-73.6473", "Sections": ["Troop"], "Registration Fee": "$250", "Name": "1st David Thompson Troop"}, {"Latitude": "45.9089", "Meeting Day": "Monday", "Meeting Time": "6:30 PM", "Meeting Location": "Marshview Middle School", "Longitude": "-64.3731", "Sections": ["Troop"], "Registration Fee": "$230", "Name": "1st Tantramar"}, {"Latitude": "45.2904", "Meeting Day": "Wednesday", "Meeting Time": "6:30 PM", "Meeting Location": "Maxville Sports Complex", "Longitude": "-74.8571", "Sections": ["Troop"], "Registration Fee": "$255", "Name": "1st Maxville"}, {"Latitude": "46.088", "Meeting Day": "Monday", "Meeting Time": "7:00 PM", "Meeting Location": "Community Centre", "Longitude": "-79.3636", "Sections": ["Troop"], "Registration Fee": "$230", "Name": "1st Powassan"}, {"Latitude": "45.4649", "Meeting Day": "Wednesday", "Meeting Time": "6:30 PM", "Meeting Location": "St Thomas the Apostle Catholic School", "Longitude": "-76.674", "Sections": ["Troop"], "Registration Fee": "$230", "Name": "1st Renfrew"}, {"Latitude": "43.5855", "Meeting Day": "Monday", "Meeting Time": "6:30 PM", "Meeting Location": "downstairs-rear", "Longitude": "-65.4727", "Sections": ["Troop"], "Registration Fee": "$230", "Name": "3rd Barrington Scout Troop"}, {"Latitude": "46.2655", "Meeting Day": "Monday", "Meeting Time": "7:00 PM", "Meeting Location": "Ferris Glen P.S.", "Longitude": "-79.2962", "Sections": ["Troop"], "Registration Fee": "$250", "Name": "1st Callander"}, {"Latitude": "45.0177", "Meeting Day": "Wednesday", "Meeting Time": "7:00 PM", "Meeting Location": "Trinity Anglican Church Hall", "Longitude": "-74.7309", "Sections": ["Troop"], "Registration Fee": "$230", "Name": "3rd Cornwall"}, {"Latitude": "45.6168", "Meeting Day": "Wednesday", "Meeting Time": "6:45 PM", "Meeting Location": "\u00c9cole Gaston-Pilon", "Longitude": "-73.8557", "Sections": ["Troop"], "Registration Fee": "$230", "Name": "1st Boisbriand"}, {"Latitude": "45.3267", "Meeting Day": "Thursday", "Meeting Time": "7:00 PM", "Meeting Location": "Trinity United Church", "Longitude": "-79.2178", "Sections": ["Troop"], "Registration Fee": "$230", "Name": "2nd Huntsville A"}, {"Latitude": "46.1219", "Meeting Day": "Thursday", "Meeting Time": "7:00 PM", "Meeting Location": "Forest Glen School/Irishtown Nature Park", "Longitude": "-64.7724", "Sections": ["Troop"], "Registration Fee": "$230", "Name": "1st Saint Michaels"}, {"Latitude": "45.3041", "Meeting Day": "Wednesday", "Meeting Time": "6:30 PM", "Meeting Location": "Holy Redeemer Catholic School", "Longitude": "-75.9014", "Sections": ["Troop"], "Registration Fee": "$280", "Name": "4th Kanata"}, {"Latitude": "45.5407", "Meeting Day": "Wednesday", "Meeting Time": "7:30 PM", "Meeting Location": "St.Patrick School", "Longitude": "-75.2987", "Sections": ["Troop"], "Registration Fee": "$255", "Name": "1st Rockland"}, {"Latitude": "46.4745", "Meeting Day": "Thursday", "Meeting Time": "6:30 PM", "Meeting Location": "Copper Cliff School", "Longitude": "-81.072", "Sections": ["Troop"], "Registration Fee": "$255", "Name": "1st Copper Cliff Scout"}, {"Latitude": "45.3916", "Meeting Day": "Wednesday", "Meeting Time": "6:30 PM", "Meeting Location": "Parc nature les Forestiers-de-Saint-Lazare", "Longitude": "-74.0204", "Sections": ["Troop"], "Registration Fee": "$300", "Name": "1st St. Lazare"}, {"Latitude": "46.4754", "Meeting Day": "Monday", "Meeting Time": "6:30 PM", "Meeting Location": "St. Peter's United Church", "Longitude": "-81.0033", "Sections": ["Troop"], "Registration Fee": "$280", "Name": "15th Sudbury"}, {"Latitude": "45.4377", "Meeting Day": "Thursday", "Meeting Time": "6:45 PM", "Meeting Location": "Kinbrun Community Centre", "Longitude": "-76.3601", "Sections": ["Troop"], "Registration Fee": "$230", "Name": "2nd Arnprior"}, {"Latitude": "47.0279", "Meeting Day": "Monday", "Meeting Time": "6:30 PM", "Meeting Location": "Gretna Green Elementary", "Longitude": "-65.4695", "Sections": ["Troop"], "Registration Fee": "$230", "Name": "1st Gretna Green"}, {"Latitude": "45.4496", "Meeting Day": "Thursday", "Meeting Time": "6:30 PM", "Meeting Location": "Holleuffer Chalet", "Longitude": "-73.8794", "Sections": ["Troop"], "Registration Fee": "$255", "Name": "1st Kirkland Northwest"}, {"Latitude": "44.9956", "Meeting Day": "Thursday", "Meeting Time": "7:00 PM", "Meeting Location": "Maple Ridge Elementary, Lantz, NS", "Longitude": "-63.4686", "Sections": ["Troop"], "Registration Fee": "$230", "Name": "1st Lantz A"}, {"Latitude": "44.9914", "Meeting Day": "Thursday", "Meeting Time": "6:30 PM", "Meeting Location": "Kingston & District School", "Longitude": "-64.9464", "Sections": ["Troop"], "Registration Fee": "$230", "Name": "1st Kingston A"}, {"Latitude": "46.2817", "Meeting Day": "Thursday", "Meeting Time": "7:00 PM", "Meeting Location": "Silver Birches School", "Longitude": "-79.4387", "Sections": ["Troop"], "Registration Fee": "$230", "Name": "West Ferris"}, {"Latitude": "45.5673", "Meeting Day": "Thursday", "Meeting Time": "6:30 PM", "Meeting Location": "", "Longitude": "-62.7159", "Sections": ["Troop"], "Registration Fee": "$230", "Name": "1st Lourdes"}, {"Latitude": "45.5025", "Meeting Day": "Monday", "Meeting Time": "7:00 PM", "Meeting Location": "St. Lambert Elementary Gym", "Longitude": "-73.5105", "Sections": ["Troop"], "Registration Fee": "$270", "Name": "Storer"}, {"Latitude": "45.4488", "Meeting Day": "Thursday", "Meeting Time": "7:00 PM", "Meeting Location": "Pine Beach Hall, Herron Road", "Longitude": "-73.7621", "Sections": ["Troop"], "Registration Fee": "$230", "Name": "1st Pine Beach Nahani Scout"}, {"Latitude": "46.3302", "Meeting Day": "Monday", "Meeting Time": "6:30 PM", "Meeting Location": "St Luke's Elementary School", "Longitude": "-79.4565", "Sections": ["Troop"], "Registration Fee": "$245", "Name": "3rd Widdifield"}, {"Latitude": "45.5202", "Meeting Day": "Tuesday", "Meeting Time": "7:00 PM", "Meeting Location": "Saint-Joseph-de-Mont-Royal", "Longitude": "-73.6453", "Sections": ["Troop"], "Registration Fee": "$355", "Name": "First Town of Mount Royal"}, {"Latitude": "44.6455", "Meeting Day": "Thursday", "Meeting Time": "7:30 PM", "Meeting Location": "St. Agnes Church Hall", "Longitude": "-63.6151", "Sections": ["Troop"], "Registration Fee": "$260", "Name": "26th Halifax A"}, {"Latitude": "45.3417", "Meeting Day": "Wednesday", "Meeting Time": "6:30 PM", "Meeting Location": "Westfield United Church", "Longitude": "-66.2222", "Sections": ["Troop"], "Registration Fee": "$230", "Name": "1st Westfield"}, {"Latitude": "45.8336", "Meeting Day": "Sunday", "Meeting Time": "6:30 PM", "Meeting Location": "Lions Den", "Longitude": "-64.213", "Sections": ["Troop"], "Registration Fee": "$230", "Name": "1st Cumberland - Kwesomalegek"}, {"Latitude": "45.4392", "Meeting Day": "Wednesday", "Meeting Time": "6:30 PM", "Meeting Location": "Beacon Hill Chalet", "Longitude": "-73.8449", "Sections": ["Troop"], "Registration Fee": "$280", "Name": "1st Beaconsfield Heights"}, {"Latitude": "48.7602", "Meeting Day": "Tuesday", "Meeting Time": "6:30 PM", "Meeting Location": "Iroquois Falls Public School", "Longitude": "-80.6088", "Sections": ["Troop"], "Registration Fee": "$260", "Name": "Iroquois Falls"}, {"Latitude": "45.4804", "Meeting Day": "Tuesday", "Meeting Time": "6:30 PM", "Meeting Location": "Westmount Park School Gym (door off Westmount Park)", "Longitude": "-73.5955", "Sections": ["Troop"], "Registration Fee": "$230", "Name": "Westmount Park"}, {"Latitude": "45.4496", "Meeting Day": "Tuesday", "Meeting Time": "6:30 PM", "Meeting Location": "Forest Valley ES", "Longitude": "-75.5364", "Sections": ["Troop"], "Registration Fee": "$270", "Name": "14th Gloucester Sea"}, {"Latitude": "45.9039", "Meeting Day": "Wednesday", "Meeting Time": "6:45 PM", "Meeting Location": "Morin Heights Elementary School", "Longitude": "-74.24", "Sections": ["Troop"], "Registration Fee": "$230", "Name": "1st Morin Heights"}, {"Latitude": "47.5325", "Meeting Day": "Wednesday", "Meeting Time": "7:45 PM", "Meeting Location": "Cowan Heights Elementary School", "Longitude": "-52.7624", "Sections": ["Troop"], "Registration Fee": "$240", "Name": "1st Cowan Heights"}, {"Latitude": "48.9616", "Meeting Day": "Thursday", "Meeting Time": "7:00 PM", "Meeting Location": "All Saint's Anglican Church", "Longitude": "-57.9292", "Sections": ["Troop"], "Registration Fee": "$250", "Name": "54th Corner Brook"}, {"Latitude": "45.476", "Meeting Day": "Monday", "Meeting Time": "7:00 PM", "Meeting Location": "Orleans United Church", "Longitude": "-75.5354", "Sections": ["Troop"], "Registration Fee": "$270", "Name": "8th Orleans United Troop"}, {"Latitude": "48.191", "Meeting Day": "Monday", "Meeting Time": "7:00 PM", "Meeting Location": "Riverside Elementary", "Longitude": "-53.9663", "Sections": ["Troop"], "Registration Fee": "$230", "Name": "4th Clarenville"}, {"Latitude": "44.7445", "Meeting Day": "Tuesday", "Meeting Time": "7:00 PM", "Meeting Location": "Bedford United Church", "Longitude": "-63.6509", "Sections": ["Troop"], "Registration Fee": "$255", "Name": "1st Bedford A"}, {"Latitude": "45.3797", "Meeting Day": "Saturday", "Meeting Time": "1:00 PM", "Meeting Location": "Notre Dame High School- Closed Group; Must Speak Hungarian", "Longitude": "-75.7559", "Sections": ["Troop"], "Registration Fee": "$230", "Name": "28th Hungarian"}, {"Latitude": "45.3676", "Meeting Day": "Wednesday", "Meeting Time": "6:30 PM", "Meeting Location": "United Church Lennoxville, 6 Church Street, Sherbrooke (Lennoxville)", "Longitude": "-71.8586", "Sections": ["Troop"], "Registration Fee": "$265", "Name": "1st Lennoxville"}, {"Latitude": "45.4851", "Meeting Day": "Wednesday", "Meeting Time": "6:30 PM", "Meeting Location": "Mountainside Church", "Longitude": "-73.6127", "Sections": ["Troop"], "Registration Fee": "$230", "Name": "2nd Westmount"}, {"Latitude": "48.9302", "Meeting Day": "Tuesday", "Meeting Time": "7:15 PM", "Meeting Location": "Memorial United Church", "Longitude": "-55.6598", "Sections": ["Troop"], "Registration Fee": "$230", "Name": "4th Grand Falls"}, {"Latitude": "44.6859", "Meeting Day": "Tuesday", "Meeting Time": "6:30 PM", "Meeting Location": "Joseph Giles", "Longitude": "-63.4947", "Sections": ["Troop"], "Registration Fee": "$230", "Name": "5th Cole Harbour A"}, {"Latitude": "45.4403", "Meeting Day": "Thursday", "Meeting Time": "7:00 PM", "Meeting Location": "Summerlea United Church", "Longitude": "-73.7118", "Sections": ["Troop"], "Registration Fee": "$230", "Name": "Summerlea Scout"}, {"Latitude": "44.6725", "Meeting Day": "Tuesday", "Meeting Time": "6:30 PM", "Meeting Location": "Stairs Memorial Church", "Longitude": "-63.5862", "Sections": ["Troop"], "Registration Fee": "$230", "Name": "17th Dartmouth A"}, {"Latitude": "45.455", "Meeting Day": "Tuesday", "Meeting Time": "7:30 PM", "Meeting Location": "Royal West Academy", "Longitude": "-73.6546", "Sections": ["Troop"], "Registration Fee": "$230", "Name": "1st Montreal West"}, {"Latitude": "45.2583", "Meeting Day": "Monday", "Meeting Time": "6:00 PM", "Meeting Location": "Princess Elizabeth School", "Longitude": "-72.1484", "Sections": ["Troop"], "Registration Fee": "$230", "Name": "4th Lake Magog"}, {"Latitude": "45.5025", "Meeting Day": "Monday", "Meeting Time": "8:00 AM", "Meeting Location": "St. Lambert Elementary School", "Longitude": "-73.5104", "Sections": ["Troop"], "Registration Fee": "$230", "Name": "1st Greenfield Park"}, {"Latitude": "45.8677", "Meeting Day": "Friday", "Meeting Time": "7:00 PM", "Meeting Location": "Church meetinghouse", "Longitude": "-72.5147", "Sections": ["Troop"], "Registration Fee": "$230", "Name": "SDJ Drummondville"}, {"Latitude": "45.1753", "Meeting Day": "Thursday", "Meeting Time": "7:00 PM", "Meeting Location": "Howick Elementary School", "Longitude": "-73.8611", "Sections": ["Troop"], "Registration Fee": "$230", "Name": "1st Howick"}, {"Latitude": "45.4727", "Meeting Day": "Tuesday", "Meeting Time": "7:00 PM", "Meeting Location": "Westminster chalet", "Longitude": "-73.8443", "Sections": ["Troop"], "Registration Fee": "$280", "Name": "1st Fairview Centennial"}, {"Latitude": "45.5202", "Meeting Day": "Tuesday", "Meeting Time": "7:00 PM", "Meeting Location": "Saint-Joseph-de-Mont-Royal", "Longitude": "-73.6453", "Sections": ["Troop"], "Registration Fee": "$355", "Name": "First Town of Mount Royal"}, {"Latitude": "45.4623", "Meeting Day": "Thursday", "Meeting Time": "7:00 PM", "Meeting Location": "Ecclestone Chalet", "Longitude": "-73.8582", "Sections": ["Troop"], "Registration Fee": "$245", "Name": "Kirkland Southwest"}, {"Latitude": "45.5145", "Meeting Day": "Thursday", "Meeting Time": "6:30 PM", "Meeting Location": "RJ Kennedy Community Centre", "Longitude": "-75.4041", "Sections": ["Troop"], "Registration Fee": "$230", "Name": "1st Cumberland Troop"}, {"Latitude": "45.4447", "Meeting Day": "Monday", "Meeting Time": "7:30 PM", "Meeting Location": "DSUC (Basement hall)", "Longitude": "-73.769", "Sections": ["Troop"], "Registration Fee": "$230", "Name": "1st Strathmore Troop"}, {"Latitude": "45.455", "Meeting Day": "Tuesday", "Meeting Time": "7:30 PM", "Meeting Location": "Royal West Academy", "Longitude": "-73.6546", "Sections": ["Troop"], "Registration Fee": "$230", "Name": "1st Montreal West"}, {"Latitude": "45.4804", "Meeting Day": "Tuesday", "Meeting Time": "6:30 PM", "Meeting Location": "Westmount Park School Gym (door off Westmount Park)", "Longitude": "-73.5955", "Sections": ["Troop"], "Registration Fee": "$230", "Name": "Westmount Park"}, {"Latitude": "45.5389", "Meeting Day": "Monday", "Meeting Time": "7:00 PM", "Meeting Location": "John Caboto School", "Longitude": "-73.6473", "Sections": ["Troop"], "Registration Fee": "$250", "Name": "1st David Thompson Troop"}, {"Latitude": "45.4403", "Meeting Day": "Thursday", "Meeting Time": "7:00 PM", "Meeting Location": "Summerlea United Church", "Longitude": "-73.7118", "Sections": ["Troop"], "Registration Fee": "$230", "Name": "Summerlea Scout"}, {"Latitude": "45.3916", "Meeting Day": "Wednesday", "Meeting Time": "6:30 PM", "Meeting Location": "Parc nature les Forestiers-de-Saint-Lazare", "Longitude": "-74.0204", "Sections": ["Troop"], "Registration Fee": "$300", "Name": "1st St. Lazare"}, {"Latitude": "46.3697", "Meeting Day": "Thursday", "Meeting Time": "6:30 PM", "Meeting Location": "x", "Longitude": "-72.5397", "Sections": ["Troop"], "Registration Fee": "$255", "Name": "1st Three Rivers"}, {"Latitude": "45.4053", "Meeting Day": "Wednesday", "Meeting Time": "6:30 PM", "Meeting Location": "Red Barn Facility", "Longitude": "-73.9245", "Sections": ["Troop"], "Registration Fee": "$295", "Name": "1st Baie D'Urfe"}, {"Latitude": "45.5656", "Meeting Day": "Tuesday", "Meeting Time": "7:00 PM", "Meeting Location": "chapelle de l'\u00c9glise", "Longitude": "-73.4896", "Sections": ["Troop"], "Registration Fee": "$230", "Name": "SDJ Longueuil"}, {"Latitude": "45.9039", "Meeting Day": "Wednesday", "Meeting Time": "6:45 PM", "Meeting Location": "Morin Heights Elementary School", "Longitude": "-74.24", "Sections": ["Troop"], "Registration Fee": "$230", "Name": "1st Morin Heights"}, {"Latitude": "45.7312", "Meeting Day": "Monday", "Meeting Time": "6:00 PM", "Meeting Location": "Centre La Maison des Amis", "Longitude": "-73.6498", "Sections": ["Troop"], "Registration Fee": "$250", "Name": "1st Mascouche Heights"}, {"Latitude": "45.455", "Meeting Day": "Tuesday", "Meeting Time": "7:30 PM", "Meeting Location": "Royal West Academy", "Longitude": "-73.6546", "Sections": ["Troop"], "Registration Fee": "$230", "Name": "1st Montreal West"}, {"Latitude": "45.6285", "Meeting Day": "Tuesday", "Meeting Time": "7:00 PM", "Meeting Location": "Rosemere Memorial Community Centre", "Longitude": "-73.7985", "Sections": ["Troop"], "Registration Fee": "$285", "Name": "1st Rosemere Memorial"}, {"Latitude": "45.5508", "Meeting Day": "Friday", "Meeting Time": "7:00 PM", "Meeting Location": "Trinity United Church Hall", "Longitude": "-73.5818", "Sections": ["Troop"], "Registration Fee": "$255", "Name": "24th Montreal Trinity Rosemount"}, {"Latitude": "45.2904", "Meeting Day": "Wednesday", "Meeting Time": "6:30 PM", "Meeting Location": "Maxville Sports Complex", "Longitude": "-74.8571", "Sections": ["Troop"], "Registration Fee": "$255", "Name": "1st Maxville"}, {"Latitude": "45.4808", "Meeting Day": "Monday", "Meeting Time": "6:30 PM", "Meeting Location": "Fallingbrook Community Elementary School", "Longitude": "-75.487", "Sections": ["Troop"], "Registration Fee": "$260", "Name": "4th Orleans Dragon"}, {"Latitude": "45.4851", "Meeting Day": "Wednesday", "Meeting Time": "6:30 PM", "Meeting Location": "Mountainside Church", "Longitude": "-73.6127", "Sections": ["Troop"], "Registration Fee": "$230", "Name": "2nd Westmount"}, {"Latitude": "45.4562", "Meeting Day": "Tuesday", "Meeting Time": "6:30 PM", "Meeting Location": "Chalet Arthur Seguin ", "Longitude": "-73.8053", "Sections": ["Troop"], "Registration Fee": "$230", "Name": "1st Lakeside Heights"}, {"Latitude": "45.5025", "Meeting Day": "Monday", "Meeting Time": "7:00 PM", "Meeting Location": "St. Lambert Elementary Gym", "Longitude": "-73.5105", "Sections": ["Troop"], "Registration Fee": "$270", "Name": "Storer"}, {"Latitude": "45.5018", "Meeting Day": "Friday", "Meeting Time": "7:30 PM", "Meeting Location": "1897, Avenue de l'Eglise, St-Laurent, QC H4M 1E6", "Longitude": "-73.6768", "Sections": ["Troop"], "Registration Fee": "$295", "Name": "Lien Doan Lac Viet"}, {"Latitude": "45.3724", "Meeting Day": "Wednesday", "Meeting Time": "7:00 PM", "Meeting Location": "\u00c9cole Notre-Dame de Lorette", "Longitude": "-73.9885", "Sections": ["Troop"], "Registration Fee": "$250", "Name": "1st Ile Perrot"}, {"Latitude": "45.6168", "Meeting Day": "Wednesday", "Meeting Time": "6:45 PM", "Meeting Location": "\u00c9cole Gaston-Pilon", "Longitude": "-73.8557", "Sections": ["Troop"], "Registration Fee": "$230", "Name": "1st Boisbriand"}, {"Latitude": "45.5296", "Meeting Day": "Thursday", "Meeting Time": "7:00 PM", "Meeting Location": "St. Jude School", "Longitude": "-74.6467", "Sections": ["Troop"], "Registration Fee": "$230", "Name": "1st Vankleek Hill"}, {"Latitude": "45.0885", "Meeting Day": "Thursday", "Meeting Time": "7:00 PM", "Meeting Location": "Huntingdon Academy (GYM)", "Longitude": "-74.1735", "Sections": ["Troop"], "Registration Fee": "$240", "Name": "1st Huntingdon"}, {"Latitude": "45.4403", "Meeting Day": "Thursday", "Meeting Time": "7:00 PM", "Meeting Location": "Summerlea United Church", "Longitude": "-73.7118", "Sections": ["Troop"], "Registration Fee": "$230", "Name": "Summerlea Scout"}, {"Latitude": "45.3903", "Meeting Day": "Thursday", "Meeting Time": "7:00 PM", "Meeting Location": "St Lawrence School - Champlain Pavillion", "Longitude": "-73.5277", "Sections": ["Troop"], "Registration Fee": "$230", "Name": "1st Candiac"}, {"Latitude": "45.4548", "Meeting Day": "Monday", "Meeting Time": "7:00 PM", "Meeting Location": "St. John Fisher Church", "Longitude": "-73.7904", "Sections": ["Troop"], "Registration Fee": "$260", "Name": "1st Valois United"}, {"Latitude": "45.3875", "Meeting Day": "Monday", "Meeting Time": "6:30 PM", "Meeting Location": "St. Trinitie School", "Longitude": "-74.0192", "Sections": ["Troop"], "Registration Fee": "$265", "Name": "1st Vaudreuil Dorion Blazing Outbacks"}, {"Latitude": "45.5348", "Meeting Day": "Monday", "Meeting Time": "7:00 PM", "Meeting Location": "Campeau Center", "Longitude": "-73.7383", "Sections": ["Troop"], "Registration Fee": "$275", "Name": "1st St. Simon's Blackfoot"}, {"Latitude": "45.4913", "Meeting Day": "Monday", "Meeting Time": "7:00 PM", "Meeting Location": "2000, Regent Blvd,Saint-Hubert,Q.C.", "Longitude": "-73.4681", "Sections": ["Troop"], "Registration Fee": "$230", "Name": "1st Greenfield Park Kaniatario"}, {"Latitude": "45.4496", "Meeting Day": "Thursday", "Meeting Time": "6:30 PM", "Meeting Location": "Holleuffer Chalet", "Longitude": "-73.8794", "Sections": ["Troop"], "Registration Fee": "$255", "Name": "1st Kirkland Northwest"}, {"Latitude": "45.3676", "Meeting Day": "Wednesday", "Meeting Time": "6:30 PM", "Meeting Location": "United Church Lennoxville, 6 Church Street, Sherbrooke (Lennoxville)", "Longitude": "-71.8586", "Sections": ["Troop"], "Registration Fee": "$265", "Name": "1st Lennoxville"}, {"Latitude": "45.4439", "Meeting Day": "Wednesday", "Meeting Time": "7:15 PM", "Meeting Location": "7110 Newman Lasalle", "Longitude": "-73.6144", "Sections": ["Troop"], "Registration Fee": "$230", "Name": "LDS Lasalle"}, {"Latitude": "45.4392", "Meeting Day": "Wednesday", "Meeting Time": "6:30 PM", "Meeting Location": "Beacon Hill Chalet", "Longitude": "-73.8449", "Sections": ["Troop"], "Registration Fee": "$280", "Name": "1st Beaconsfield Heights"}, {"Latitude": "45.4876", "Meeting Day": "Monday", "Meeting Time": "7:00 PM", "Meeting Location": "Divine Infant Elementary School", "Longitude": "-75.5131", "Sections": ["Troop"], "Registration Fee": "$280", "Name": "3rd Orleans"}, {"Latitude": "45.5407", "Meeting Day": "Wednesday", "Meeting Time": "7:30 PM", "Meeting Location": "St.Patrick School", "Longitude": "-75.2987", "Sections": ["Troop"], "Registration Fee": "$255", "Name": "1st Rockland"}, {"Latitude": "45.4488", "Meeting Day": "Thursday", "Meeting Time": "7:00 PM", "Meeting Location": "Pine Beach Hall, Herron Road", "Longitude": "-73.7621", "Sections": ["Troop"], "Registration Fee": "$230", "Name": "1st Pine Beach Nahani Scout"}, {"Latitude": "45.7496", "Meeting Day": "Thursday", "Meeting Time": "6:30 PM", "Meeting Location": "\u00c9cole Mer-et-Monde", "Longitude": "-74.0592", "Sections": ["Troop"], "Registration Fee": "$230", "Name": "Riviere du Nord"}, {"Latitude": "45.4821", "Meeting Day": "Tuesday", "Meeting Time": "7:00 PM", "Meeting Location": "Chapelle de l'Eglise", "Longitude": "-73.471", "Sections": ["Troop"], "Registration Fee": "$230", "Name": "SDJ Lemoyne"}, {"Latitude": "45.5367", "Meeting Day": "Wednesday", "Meeting Time": "6:30 PM", "Meeting Location": "Socrates V Gym", "Longitude": "-73.7665", "Sections": ["Troop"], "Registration Fee": "$230", "Name": "Hellenic Scouting Group Pavlides"}, {"Latitude": "45.5654", "Meeting Day": "Monday", "Meeting Time": "6:30 PM", "Meeting Location": "Ecole Village des Jeunes", "Longitude": "-73.9115", "Sections": ["Troop"], "Registration Fee": "$230", "Name": "1st St Eustache"}, {"Latitude": "45.4675", "Meeting Day": "Wednesday", "Meeting Time": "6:45 PM", "Meeting Location": "St-Thomas School", "Longitude": "-74.1603", "Sections": ["Troop"], "Registration Fee": "$320", "Name": "1st Cavagnal (Hudson)"}, {"Latitude": "45.3679", "Meeting Day": "Tuesday", "Meeting Time": "7:00 PM", "Meeting Location": "St. George's Anglican Church", "Longitude": "-73.7357", "Sections": ["Troop"], "Registration Fee": "$280", "Name": "Chateauguay"}, {"Latitude": "45.5273", "Meeting Day": "Tuesday", "Meeting Time": "7:00 PM", "Meeting Location": "Albert Schweitzer School", "Longitude": "-73.3575", "Sections": ["Troop"], "Registration Fee": "$240", "Name": "1st Mt. Bruno"}, {"Latitude": "44.2984", "Meeting Day": "Thursday", "Meeting Time": "6:30 PM", "Meeting Location": "Lady Eaton Public School", "Longitude": "-78.5676", "Sections": ["Troop"], "Registration Fee": "$230", "Name": "1st Omemee A"}, {"Latitude": "44.5953", "Meeting Day": "Sunday", "Meeting Time": "1:30 PM", "Meeting Location": "Sauble Scout Camp", "Longitude": "-81.1824", "Sections": ["Troop"], "Registration Fee": "$230", "Name": "1st Sauble Valley A"}, {"Latitude": "45.7312", "Meeting Day": "Monday", "Meeting Time": "6:00 PM", "Meeting Location": "Centre La Maison des Amis", "Longitude": "-73.6498", "Sections": ["Troop"], "Registration Fee": "$250", "Name": "1st Mascouche Heights"}, {"Latitude": "45.4876", "Meeting Day": "Monday", "Meeting Time": "7:00 PM", "Meeting Location": "Divine Infant Elementary School", "Longitude": "-75.5131", "Sections": ["Troop"], "Registration Fee": "$280", "Name": "3rd Orleans"}, {"Latitude": "46.3302", "Meeting Day": "Monday", "Meeting Time": "6:30 PM", "Meeting Location": "St Luke's Elementary School", "Longitude": "-79.4565", "Sections": ["Troop"], "Registration Fee": "$245", "Name": "3rd Widdifield"}, {"Latitude": "45.4821", "Meeting Day": "Tuesday", "Meeting Time": "7:00 PM", "Meeting Location": "Chapelle de l'Eglise", "Longitude": "-73.471", "Sections": ["Troop"], "Registration Fee": "$230", "Name": "SDJ Lemoyne"}, {"Latitude": "45.5145", "Meeting Day": "Thursday", "Meeting Time": "6:30 PM", "Meeting Location": "RJ Kennedy Community Centre", "Longitude": "-75.4041", "Sections": ["Troop"], "Registration Fee": "$230", "Name": "1st Cumberland Troop"}, {"Latitude": "44.1101", "Meeting Day": "Tuesday", "Meeting Time": "6:00 PM", "Meeting Location": "The Good Shepherd C.S.", "Longitude": "-78.9624", "Sections": ["Troop"], "Registration Fee": "$245", "Name": "1st Port Perry A Troop"}, {"Latitude": "44.7099", "Meeting Day": "Thursday", "Meeting Time": "6:30 PM", "Meeting Location": "United Church", "Longitude": "-75.5176", "Sections": ["Troop"], "Registration Fee": "$230", "Name": "7th Prescott"}, {"Latitude": "44.0402", "Meeting Day": "Monday", "Meeting Time": "7:00 PM", "Meeting Location": "The Old School House", "Longitude": "-81.1159", "Sections": ["Troop"], "Registration Fee": "$230", "Name": "1st Mildmay A"}, {"Latitude": "45.288", "Meeting Day": "Thursday", "Meeting Time": "6:30 PM", "Meeting Location": "St. Martin de Porres", "Longitude": "-75.8676", "Sections": ["Troop"], "Registration Fee": "$275", "Name": "1st Glen Cairn"}, {"Latitude": "44.4716", "Meeting Day": "Tuesday", "Meeting Time": "6:30 PM", "Meeting Location": "Fenelon Falls Secondary School", "Longitude": "-78.7059", "Sections": ["Troop"], "Registration Fee": "$230", "Name": "1st Fenelon Falls"}, {"Latitude": "45.069", "Meeting Day": "Wednesday", "Meeting Time": "6:30 PM", "Meeting Location": "Alfred Taylor Community Centre", "Longitude": "-75.7302", "Sections": ["Troop"], "Registration Fee": "$290", "Name": "1st North Gower-Kars"}, {"Latitude": "46.4745", "Meeting Day": "Thursday", "Meeting Time": "6:30 PM", "Meeting Location": "Copper Cliff School", "Longitude": "-81.072", "Sections": ["Troop"], "Registration Fee": "$255", "Name": "1st Copper Cliff Scout"}, {"Latitude": "44.2039", "Meeting Day": "Wednesday", "Meeting Time": "6:00 PM", "Meeting Location": "Frankford Public School Gym", "Longitude": "-77.5987", "Sections": ["Troop"], "Registration Fee": "$230", "Name": "1st Wooler"}, {"Latitude": "45.9039", "Meeting Day": "Wednesday", "Meeting Time": "6:45 PM", "Meeting Location": "Morin Heights Elementary School", "Longitude": "-74.24", "Sections": ["Troop"], "Registration Fee": "$230", "Name": "1st Morin Heights"}, {"Latitude": "45.2671", "Meeting Day": "Wednesday", "Meeting Time": "6:30 PM", "Meeting Location": "Russell High School - Gym B", "Longitude": "-75.364", "Sections": ["Troop"], "Registration Fee": "$255", "Name": "2nd Russell"}, {"Latitude": "45.5348", "Meeting Day": "Monday", "Meeting Time": "7:00 PM", "Meeting Location": "Campeau Center", "Longitude": "-73.7383", "Sections": ["Troop"], "Registration Fee": "$275", "Name": "1st St. Simon's Blackfoot"}, {"Latitude": "45.0885", "Meeting Day": "Thursday", "Meeting Time": "7:00 PM", "Meeting Location": "Huntingdon Academy (GYM)", "Longitude": "-74.1735", "Sections": ["Troop"], "Registration Fee": "$240", "Name": "1st Huntingdon"}, {"Latitude": "43.9267", "Meeting Day": "Monday", "Meeting Time": "6:30 PM", "Meeting Location": "St Elizabeth Catholic Elementary School", "Longitude": "-78.6953", "Sections": ["Troop"], "Registration Fee": "$280", "Name": "3rd Bowmanville"}, {"Latitude": "45.4389", "Meeting Day": "Monday", "Meeting Time": "7:00 PM", "Meeting Location": "Westminster Presbyterian Church", "Longitude": "-75.6455", "Sections": ["Troop"], "Registration Fee": "$280", "Name": "3rd Ottawa"}, {"Latitude": "45.3156", "Meeting Day": "Wednesday", "Meeting Time": "6:30 PM", "Meeting Location": "Bells Corners United Church", "Longitude": "-75.8282", "Sections": ["Troop"], "Registration Fee": "$260", "Name": "116th Nepean"}, {"Latitude": "46.0952", "Meeting Day": "Wednesday", "Meeting Time": "6:30 PM", "Meeting Location": "St. Mary's School", "Longitude": "-77.4912", "Sections": ["Troop"], "Registration Fee": "$230", "Name": "1st Deep River"}, {"Latitude": "43.974", "Meeting Day": "Tuesday", "Meeting Time": "7:00 PM", "Meeting Location": "Victoria Cross", "Longitude": "-80.7381", "Sections": ["Troop"], "Registration Fee": "$230", "Name": "1st Mt. Forest A"}, {"Latitude": "45.2381", "Meeting Day": "Wednesday", "Meeting Time": "6:30 PM", "Meeting Location": "St Leonard School", "Longitude": "-75.6943", "Sections": ["Troop"], "Registration Fee": "$265", "Name": "1st Manotick"}, {"Latitude": "44.0286", "Meeting Day": "Thursday", "Meeting Time": "7:00 PM", "Meeting Location": "Burn Presbyterian Church", "Longitude": "-79.0015", "Sections": ["Troop"], "Registration Fee": "$230", "Name": "2nd Brooklin A"}, {"Latitude": "44.4354", "Meeting Day": "Tuesday", "Meeting Time": "6:30 PM", "Meeting Location": "Havelock Belmont Public School", "Longitude": "-77.8782", "Sections": ["Troop"], "Registration Fee": "$230", "Name": "1st Havelock"}, {"Latitude": "45.5296", "Meeting Day": "Thursday", "Meeting Time": "7:00 PM", "Meeting Location": "St. Jude School", "Longitude": "-74.6467", "Sections": ["Troop"], "Registration Fee": "$230", "Name": "1st Vankleek Hill"}, {"Latitude": "45.3916", "Meeting Day": "Thursday", "Meeting Time": "7:00 PM", "Meeting Location": "Lord Aylmer School (Junior Campus)", "Longitude": "-75.8399", "Sections": ["Troop"], "Registration Fee": "$320", "Name": "1st Aylmer Troop A"}, {"Latitude": "45.6213", "Meeting Day": "Wednesday", "Meeting Time": "6:30 PM", "Meeting Location": "Burk's Falls Baptist Church", "Longitude": "-79.4045", "Sections": ["Troop"], "Registration Fee": "$230", "Name": "1st Burks Falls A"}, {"Latitude": "45.3218", "Meeting Day": "Thursday", "Meeting Time": "6:00 PM", "Meeting Location": "Vimy Ridge Public School", "Longitude": "-75.6212", "Sections": ["Troop"], "Registration Fee": "$270", "Name": "1st Gloucester"}, {"Latitude": "44.312", "Meeting Day": "Wednesday", "Meeting Time": "7:00 PM", "Meeting Location": "St. Luke's Anglican Church", "Longitude": "-78.3077", "Sections": ["Troop"], "Registration Fee": "$230", "Name": "2nd Peterborough"}, {"Latitude": "45.4675", "Meeting Day": "Wednesday", "Meeting Time": "6:45 PM", "Meeting Location": "St-Thomas School", "Longitude": "-74.1603", "Sections": ["Troop"], "Registration Fee": "$320", "Name": "1st Cavagnal (Hudson)"}, {"Latitude": "44.3047", "Meeting Day": "Thursday", "Meeting Time": "6:30 PM", "Meeting Location": "The Salvation Army", "Longitude": "-78.3203", "Sections": ["Troop"], "Registration Fee": "$230", "Name": "15th Peterborough"}, {"Latitude": "43.9559", "Meeting Day": "Thursday", "Meeting Time": "7:00 PM", "Meeting Location": "Brooklin United Church", "Longitude": "-78.9613", "Sections": ["Troop"], "Registration Fee": "$230", "Name": "1st Brooklin A"}, {"Latitude": "44.2608", "Meeting Day": "Saturday", "Meeting Time": "9:00 AM", "Meeting Location": "South East Grey Suport Services", "Longitude": "-80.5495", "Sections": ["Troop"], "Registration Fee": "$230", "Name": "1st Flesherton"}, {"Latitude": "44.3329", "Meeting Day": "Thursday", "Meeting Time": "6:30 PM", "Meeting Location": "Lakefield Scout Ship", "Longitude": "-78.3951", "Sections": ["Troop"], "Registration Fee": "$230", "Name": "1st Lakefield"}, {"Latitude": "46.2655", "Meeting Day": "Monday", "Meeting Time": "7:00 PM", "Meeting Location": "Ferris Glen P.S.", "Longitude": "-79.2962", "Sections": ["Troop"], "Registration Fee": "$250", "Name": "1st Callander"}, {"Latitude": "45.3041", "Meeting Day": "Wednesday", "Meeting Time": "6:30 PM", "Meeting Location": "Holy Redeemer Catholic School", "Longitude": "-75.9014", "Sections": ["Troop"], "Registration Fee": "$280", "Name": "4th Kanata"}, {"Latitude": "44.2651", "Meeting Day": "Monday", "Meeting Time": "6:30 PM", "Meeting Location": "|St.Martha Catholic School", "Longitude": "-76.4489", "Sections": ["Troop"], "Registration Fee": "$265", "Name": "Kingston Centre Scout"}, {"Latitude": "45.0371", "Meeting Day": "Thursday", "Meeting Time": "7:00 PM", "Meeting Location": "Rotary Hall", "Longitude": "-79.3184", "Sections": ["Troop"], "Registration Fee": "$230", "Name": "1st Bracebridge A"}, {"Latitude": "45.375", "Meeting Day": "Monday", "Meeting Time": "6:45 PM", "Meeting Location": "Woodroffe United Church", "Longitude": "-75.7735", "Sections": ["Troop"], "Registration Fee": "$295", "Name": "96th Ottawa"}, {"Latitude": "45.3276", "Meeting Day": "Tuesday", "Meeting Time": "6:30 PM", "Meeting Location": "Pope John XXIII Elementary School", "Longitude": "-75.7681", "Sections": ["Troop"], "Registration Fee": "$250", "Name": "1st Nepean"}, {"Latitude": "45.3556", "Meeting Day": "Tuesday", "Meeting Time": "7:15 PM", "Meeting Location": "St Stephens Church", "Longitude": "-75.7944", "Sections": ["Troop"], "Registration Fee": "$250", "Name": "123rd Ottawa"}, {"Latitude": "49.072", "Meeting Day": "Tuesday", "Meeting Time": "6:45 PM", "Meeting Location": "Cochrane Scout Hall", "Longitude": "-81.0177", "Sections": ["Troop"], "Registration Fee": "$270", "Name": "1st Cochrane Troop"}, {"Latitude": "44.3056", "Meeting Day": "Monday", "Meeting Time": "7:00 PM", "Meeting Location": "Sutton Public School", "Longitude": "-79.3634", "Sections": ["Troop"], "Registration Fee": "$230", "Name": "1st Sutton West A"}, {"Latitude": "44.2481", "Meeting Day": "Thursday", "Meeting Time": "6:30 PM", "Meeting Location": "Grace United Church", "Longitude": "-76.9533", "Sections": ["Troop"], "Registration Fee": "$270", "Name": "1st Napanee Valley"}, {"Latitude": "45.4036", "Meeting Day": "Tuesday", "Meeting Time": "7:00 PM", "Meeting Location": "Corpus Christi School", "Longitude": "-75.6925", "Sections": ["Troop"], "Registration Fee": "$230", "Name": "36th Ottawa"}, {"Latitude": "45.5656", "Meeting Day": "Tuesday", "Meeting Time": "7:00 PM", "Meeting Location": "chapelle de l'\u00c9glise", "Longitude": "-73.4896", "Sections": ["Troop"], "Registration Fee": "$230", "Name": "SDJ Longueuil"}, {"Latitude": "45.3288", "Meeting Day": "Wednesday", "Meeting Time": "6:30 PM", "Meeting Location": "Knoxdale P.S.", "Longitude": "-75.781", "Sections": ["Troop"], "Registration Fee": "$250", "Name": "19th Nepean"}, {"Latitude": "43.9511", "Meeting Day": "Thursday", "Meeting Time": "7:00 PM", "Meeting Location": "St Mark's Church", "Longitude": "-78.2903", "Sections": ["Troop"], "Registration Fee": "$230", "Name": "1st Port Hope"}, {"Latitude": "44.0238", "Meeting Day": "Monday", "Meeting Time": "6:45 PM", "Meeting Location": "BALTIMORE PS GYM", "Longitude": "-78.1436", "Sections": ["Troop"], "Registration Fee": "$235", "Name": "1st Baltimore A"}, {"Latitude": "43.0425", "Meeting Day": "Thursday", "Meeting Time": "7:00 PM", "Meeting Location": "Thamesford Scout Hall", "Longitude": "-80.8895", "Sections": ["Troop"], "Registration Fee": "$230", "Name": "1st Kintore A"}, {"Latitude": "44.3518", "Meeting Day": "Wednesday", "Meeting Time": "6:30 PM", "Meeting Location": "Cambridge St. United Church", "Longitude": "-78.7381", "Sections": ["Troop"], "Registration Fee": "$230", "Name": "1st Lindsay"}, {"Latitude": "44.9338", "Meeting Day": "Thursday", "Meeting Time": "6:30 PM", "Meeting Location": "Glad Tidings Church", "Longitude": "-76.2521", "Sections": ["Troop"], "Registration Fee": "$240", "Name": "1st Drummond"}, {"Latitude": "44.3047", "Meeting Day": "Thursday", "Meeting Time": "6:30 PM", "Meeting Location": "The Salvation Army", "Longitude": "-78.3203", "Sections": ["Troop"], "Registration Fee": "$230", "Name": "15th Peterborough"}, {"Latitude": "44.6103", "Meeting Day": "Thursday", "Meeting Time": "7:00 PM", "Meeting Location": "St. James' Anglican Church", "Longitude": "-79.4185", "Sections": ["Troop"], "Registration Fee": "$255", "Name": "1st Orillia B"}, {"Latitude": "45.6341", "Meeting Day": "Monday", "Meeting Time": "6:30 PM", "Meeting Location": "Cobden Public School", "Longitude": "-76.8622", "Sections": ["Troop"], "Registration Fee": "$230", "Name": "1st Cobden"}, {"Latitude": "44.6985", "Meeting Day": "Monday", "Meeting Time": "7:00 PM", "Meeting Location": "St. Andrews Presbyterian Church", "Longitude": "-79.5583", "Sections": ["Troop"], "Registration Fee": "$240", "Name": "1st Coldwater A"}, {"Latitude": "45.3675", "Meeting Day": "Thursday", "Meeting Time": "6:30 PM", "Meeting Location": "St.Isidore Catholic Elementary School", "Longitude": "-75.9485", "Sections": ["Troop"], "Registration Fee": "$250", "Name": "7th Kanata"}, {"Latitude": "44.1309", "Meeting Day": "Tuesday", "Meeting Time": "7:00 PM", "Meeting Location": "Mt. Albert Public School", "Longitude": "-79.3152", "Sections": ["Troop"], "Registration Fee": "$255", "Name": "1st Mount Albert"}, {"Latitude": "45.2822", "Meeting Day": "Monday", "Meeting Time": "7:00 PM", "Meeting Location": "Roch Carrier School", "Longitude": "-75.8453", "Sections": ["Troop"], "Registration Fee": "$290", "Name": "3rd Kanata Alpha"}, {"Latitude": "45.3778", "Meeting Day": "Sunday", "Meeting Time": "10:00 AM", "Meeting Location": "K1V 7T3", "Longitude": "-75.661", "Sections": ["Troop"], "Registration Fee": "$230", "Name": "Canadian Middle East Scouts"}, {"Latitude": "45.4594", "Meeting Day": "Tuesday", "Meeting Time": "6:30 PM", "Meeting Location": "Saint Kateri Tekakwitha ES", "Longitude": "-75.5224", "Sections": ["Troop"], "Registration Fee": "$270", "Name": "14th Gloucester Land"}, {"Latitude": "43.867", "Meeting Day": "Tuesday", "Meeting Time": "6:30 PM", "Meeting Location": "Palmerston P.S, Legion Hall & Various Locations within Palmerston", "Longitude": "-80.7613", "Sections": ["Troop"], "Registration Fee": "$245", "Name": "1st Palmerston A"}, {"Latitude": "45.4317", "Meeting Day": "Monday", "Meeting Time": "6:30 PM", "Meeting Location": "Emily Carr Middle School", "Longitude": "-75.5646", "Sections": ["Troop"], "Registration Fee": "$255", "Name": "1st Blackburn Hamlet"}, {"Latitude": "45.3724", "Meeting Day": "Wednesday", "Meeting Time": "7:00 PM", "Meeting Location": "\u00c9cole Notre-Dame de Lorette", "Longitude": "-73.9885", "Sections": ["Troop"], "Registration Fee": "$250", "Name": "1st Ile Perrot"}, {"Latitude": "45.4496", "Meeting Day": "Tuesday", "Meeting Time": "6:30 PM", "Meeting Location": "Forest Valley ES", "Longitude": "-75.5364", "Sections": ["Troop"], "Registration Fee": "$270", "Name": "14th Gloucester Sea"}, {"Latitude": "45.1753", "Meeting Day": "Thursday", "Meeting Time": "7:00 PM", "Meeting Location": "Howick Elementary School", "Longitude": "-73.8611", "Sections": ["Troop"], "Registration Fee": "$230", "Name": "1st Howick"}, {"Latitude": "46.5945", "Meeting Day": "Wednesday", "Meeting Time": "6:00 PM", "Meeting Location": "Valley View Public School", "Longitude": "-81.0169", "Sections": ["Troop"], "Registration Fee": "$265", "Name": "1st Valley Scout"}, {"Latitude": "45.6317", "Meeting Day": "Monday", "Meeting Time": "6:30 PM", "Meeting Location": "Church of Good Shepherd", "Longitude": "-75.9254", "Sections": ["Troop"], "Registration Fee": "$230", "Name": "1st Wakefield"}, {"Latitude": "44.6121", "Meeting Day": "Wednesday", "Meeting Time": "6:30 PM", "Meeting Location": "Barrie Township Hall", "Longitude": "-76.8244", "Sections": ["Troop"], "Registration Fee": "$230", "Name": "1st Land O Lakes"}, {"Latitude": "45.4053", "Meeting Day": "Wednesday", "Meeting Time": "6:30 PM", "Meeting Location": "Red Barn Facility", "Longitude": "-73.9245", "Sections": ["Troop"], "Registration Fee": "$295", "Name": "1st Baie D'Urfe"}, {"Latitude": "45.0395", "Meeting Day": "Monday", "Meeting Time": "7:30 PM", "Meeting Location": "Bracebridge United Church", "Longitude": "-79.3108", "Sections": ["Troop"], "Registration Fee": "$230", "Name": "3rd Bracebridge A"}, {"Latitude": "45.3999", "Meeting Day": "Thursday", "Meeting Time": "7:30 PM", "Meeting Location": "Connaught Elementary School", "Longitude": "-75.7272", "Sections": ["Troop"], "Registration Fee": "$260", "Name": "32nd Ottawa"}, {"Latitude": "45.4851", "Meeting Day": "Wednesday", "Meeting Time": "6:30 PM", "Meeting Location": "Mountainside Church", "Longitude": "-73.6127", "Sections": ["Troop"], "Registration Fee": "$230", "Name": "2nd Westmount"}, {"Latitude": "45.423", "Meeting Day": "Tuesday", "Meeting Time": "6:30 PM", "Meeting Location": "John Paul II Elementary School", "Longitude": "-75.601", "Sections": ["Troop"], "Registration Fee": "$275", "Name": "1st Greenwood Sea Troop"}, {"Latitude": "45.1486", "Meeting Day": "Wednesday", "Meeting Time": "6:30 PM", "Meeting Location": "Trinity Bible Church", "Longitude": "-75.6011", "Sections": ["Troop"], "Registration Fee": "$280", "Name": "1st Osgoode"}, {"Latitude": "46.4754", "Meeting Day": "Monday", "Meeting Time": "6:30 PM", "Meeting Location": "St. Peter's United Church", "Longitude": "-81.0033", "Sections": ["Troop"], "Registration Fee": "$280", "Name": "15th Sudbury"}, {"Latitude": "45.3868", "Meeting Day": "Wednesday", "Meeting Time": "7:00 PM", "Meeting Location": "Rideau Park United Church", "Longitude": "-75.6627", "Sections": ["Troop"], "Registration Fee": "$250", "Name": "28th Ottawa"}, {"Latitude": "45.6168", "Meeting Day": "Wednesday", "Meeting Time": "6:45 PM", "Meeting Location": "\u00c9cole Gaston-Pilon", "Longitude": "-73.8557", "Sections": ["Troop"], "Registration Fee": "$230", "Name": "1st Boisbriand"}, {"Latitude": "45.3638", "Meeting Day": "Thursday", "Meeting Time": "7:30 PM", "Meeting Location": "Greenboro Pavilion", "Longitude": "-75.6472", "Sections": ["Troop"], "Registration Fee": "$260", "Name": "137th Ottawa"}, {"Latitude": "45.3929", "Meeting Day": "Thursday", "Meeting Time": "6:45 PM", "Meeting Location": "Kinburn Community Centre", "Longitude": "-76.187", "Sections": ["Troop"], "Registration Fee": "$245", "Name": "1st West Carleton"}, {"Latitude": "44.0795", "Meeting Day": "Wednesday", "Meeting Time": "6:00 PM", "Meeting Location": "Centennial Hylands ES", "Longitude": "-80.1927", "Sections": ["Troop"], "Registration Fee": "$260", "Name": "1st Shelburne A"}, {"Latitude": "45.0742", "Meeting Day": "Wednesday", "Meeting Time": "6:00 PM", "Meeting Location": "Bird's Creek Community Centre", "Longitude": "-77.9003", "Sections": ["Troop"], "Registration Fee": "$255", "Name": "1st Bancroft"}, {"Latitude": "44.9313", "Meeting Day": "Thursday", "Meeting Time": "7:00 PM", "Meeting Location": "Scout Hall, Community Centre", "Longitude": "-78.7261", "Sections": ["Troop"], "Registration Fee": "$230", "Name": "1st Minden"}, {"Latitude": "43.2884", "Meeting Day": "Wednesday", "Meeting Time": "6:45 PM", "Meeting Location": "Knox United Church", "Longitude": "-80.4536", "Sections": ["Troop"], "Registration Fee": "$260", "Name": "1st Ayr"}, {"Latitude": "43.9064", "Meeting Day": "Monday", "Meeting Time": "7:00 PM", "Meeting Location": "Lydia Trulls PS", "Longitude": "-78.7809", "Sections": ["Troop"], "Registration Fee": "$230", "Name": "18th Oshawa A"}, {"Latitude": "45.7496", "Meeting Day": "Thursday", "Meeting Time": "6:30 PM", "Meeting Location": "\u00c9cole Mer-et-Monde", "Longitude": "-74.0592", "Sections": ["Troop"], "Registration Fee": "$230", "Name": "Riviere du Nord"}, {"Latitude": "45.4804", "Meeting Day": "Tuesday", "Meeting Time": "6:30 PM", "Meeting Location": "Westmount Park School Gym (door off Westmount Park)", "Longitude": "-73.5955", "Sections": ["Troop"], "Registration Fee": "$230", "Name": "Westmount Park"}, {"Latitude": "44.5948", "Meeting Day": "Wednesday", "Meeting Time": "7:00 PM", "Meeting Location": "Twin Lakes Secondary School", "Longitude": "-79.4325", "Sections": ["Troop"], "Registration Fee": "$255", "Name": "1st Orillia A"}, {"Latitude": "45.2904", "Meeting Day": "Wednesday", "Meeting Time": "6:30 PM", "Meeting Location": "Maxville Sports Complex", "Longitude": "-74.8571", "Sections": ["Troop"], "Registration Fee": "$255", "Name": "1st Maxville"}, {"Latitude": "44.3249", "Meeting Day": "Monday", "Meeting Time": "6:45 PM", "Meeting Location": "Morning Glory PS", "Longitude": "-79.2417", "Sections": ["Troop"], "Registration Fee": "$230", "Name": "1st Pefferlaw A"}, {"Latitude": "45.6285", "Meeting Day": "Tuesday", "Meeting Time": "7:00 PM", "Meeting Location": "Rosemere Memorial Community Centre", "Longitude": "-73.7985", "Sections": ["Troop"], "Registration Fee": "$285", "Name": "1st Rosemere Memorial"}, {"Latitude": "45.4389", "Meeting Day": "Tuesday", "Meeting Time": "6:30 PM", "Meeting Location": "Queen Elizabeth School", "Longitude": "-75.6455", "Sections": ["Troop"], "Registration Fee": "$280", "Name": "63rd Ottawa"}, {"Latitude": "47.825", "Meeting Day": "Tuesday", "Meeting Time": "6:30 PM", "Meeting Location": "Living Way Church", "Longitude": "-79.8829", "Sections": ["Troop"], "Registration Fee": "$230", "Name": "Englehart"}, {"Latitude": "43.5922", "Meeting Day": "Wednesday", "Meeting Time": "6:45 PM", "Meeting Location": "John Mahood PS", "Longitude": "-80.5618", "Sections": ["Troop"], "Registration Fee": "$260", "Name": "1st Elmira A"}, {"Latitude": "42.9791", "Meeting Day": "Thursday", "Meeting Time": "7:00 PM", "Meeting Location": "Grand Howl Hall, Camp BEL", "Longitude": "-81.0306", "Sections": ["Troop"], "Registration Fee": "$230", "Name": "1st Dorchester A"}, {"Latitude": "45.3267", "Meeting Day": "Thursday", "Meeting Time": "7:00 PM", "Meeting Location": "Trinity United Church", "Longitude": "-79.2178", "Sections": ["Troop"], "Registration Fee": "$230", "Name": "2nd Huntsville A"}, {"Latitude": "45.1875", "Meeting Day": "Thursday", "Meeting Time": "7:00 PM", "Meeting Location": "St. John's Anglican Church Hall", "Longitude": "-75.8354", "Sections": ["Troop"], "Registration Fee": "$230", "Name": "1st Richmond Troop"}, {"Latitude": "45.3875", "Meeting Day": "Monday", "Meeting Time": "6:30 PM", "Meeting Location": "St. Trinitie School", "Longitude": "-74.0192", "Sections": ["Troop"], "Registration Fee": "$265", "Name": "1st Vaudreuil Dorion Blazing Outbacks"}, {"Latitude": "44.4082", "Meeting Day": "Thursday", "Meeting Time": "7:00 PM", "Meeting Location": "Loughborough Public School, Sydenham", "Longitude": "-76.5947", "Sections": ["Troop"], "Registration Fee": "$245", "Name": "1st South Frontenac"}, {"Latitude": "45.3543", "Meeting Day": "Tuesday", "Meeting Time": "6:30 PM", "Meeting Location": "Holy Family School", "Longitude": "-75.666", "Sections": ["Troop"], "Registration Fee": "$270", "Name": "11th Ottawa"}, {"Latitude": "45.4496", "Meeting Day": "Thursday", "Meeting Time": "6:30 PM", "Meeting Location": "Holleuffer Chalet", "Longitude": "-73.8794", "Sections": ["Troop"], "Registration Fee": "$255", "Name": "1st Kirkland Northwest"}, {"Latitude": "44.3218", "Meeting Day": "Wednesday", "Meeting Time": "6:30 PM", "Meeting Location": "Northminster United Church", "Longitude": "-78.3309", "Sections": ["Troop"], "Registration Fee": "$230", "Name": "27th Peterborough"}, {"Latitude": "45.2485", "Meeting Day": "Thursday", "Meeting Time": "7:00 PM", "Meeting Location": "St Mary Elementary School", "Longitude": "-75.5947", "Sections": ["Troop"], "Registration Fee": "$275", "Name": "1st Greely"}, {"Latitude": "45.5407", "Meeting Day": "Wednesday", "Meeting Time": "7:30 PM", "Meeting Location": "St.Patrick School", "Longitude": "-75.2987", "Sections": ["Troop"], "Registration Fee": "$255", "Name": "1st Rockland"}, {"Latitude": "43.734", "Meeting Day": "Tuesday", "Meeting Time": "7:00 PM", "Meeting Location": "Trinity United Church", "Longitude": "-80.9556", "Sections": ["Troop"], "Registration Fee": "$230", "Name": "2nd Listowel A"}, {"Latitude": "45.3797", "Meeting Day": "Saturday", "Meeting Time": "1:00 PM", "Meeting Location": "Notre Dame High School- Closed Group; Must Speak Hungarian", "Longitude": "-75.7559", "Sections": ["Troop"], "Registration Fee": "$230", "Name": "28th Hungarian"}, {"Latitude": "44.2234", "Meeting Day": "Monday", "Meeting Time": "6:45 PM", "Meeting Location": "Fairfield Elementary School", "Longitude": "-76.651", "Sections": ["Troop"], "Registration Fee": "$245", "Name": "1st Amherstview"}, {"Latitude": "43.9099", "Meeting Day": "Wednesday", "Meeting Time": "7:00 PM", "Meeting Location": "CHURCH OF Jesus Christ Of LATTER DAY SAINTS", "Longitude": "-78.705", "Sections": ["Troop"], "Registration Fee": "$230", "Name": "11th Bowmanville A"}, {"Latitude": "43.9152", "Meeting Day": "Wednesday", "Meeting Time": "6:30 PM", "Meeting Location": "St. Francis of Assisi Catholic Elementary School ", "Longitude": "-78.5836", "Sections": ["Troop"], "Registration Fee": "$240", "Name": "1st Newcastle A"}, {"Latitude": "45.4913", "Meeting Day": "Monday", "Meeting Time": "7:00 PM", "Meeting Location": "2000, Regent Blvd,Saint-Hubert,Q.C.", "Longitude": "-73.4681", "Sections": ["Troop"], "Registration Fee": "$230", "Name": "1st Greenfield Park Kaniatario"}, {"Latitude": "44.3436", "Meeting Day": "Wednesday", "Meeting Time": "6:00 PM", "Meeting Location": "Joyceville Public School, Joyceville, ON", "Longitude": "-76.3337", "Sections": ["Troop"], "Registration Fee": "$245", "Name": "1st Joyceville"}, {"Latitude": "45.5273", "Meeting Day": "Tuesday", "Meeting Time": "7:00 PM", "Meeting Location": "Albert Schweitzer School", "Longitude": "-73.3575", "Sections": ["Troop"], "Registration Fee": "$240", "Name": "1st Mt. Bruno"}, {"Latitude": "44.8457", "Meeting Day": "Tuesday", "Meeting Time": "6:30 PM", "Meeting Location": "Royal Canadian Legion", "Longitude": "-75.5474", "Sections": ["Troop"], "Registration Fee": "$230", "Name": "2nd Spencerville"}, {"Latitude": "44.3787", "Meeting Day": "Thursday", "Meeting Time": "7:00 PM", "Meeting Location": "Bridgenorth United Church", "Longitude": "-78.3831", "Sections": ["Troop"], "Registration Fee": "$240", "Name": "1st Bridgenorth"}, {"Latitude": "44.3076", "Meeting Day": "Tuesday", "Meeting Time": "7:00 PM", "Meeting Location": "Chesley Community School", "Longitude": "-81.098", "Sections": ["Troop"], "Registration Fee": "$230", "Name": "1st Chesley A"}, {"Latitude": "45.1362", "Meeting Day": "Tuesday", "Meeting Time": "6:30 PM", "Meeting Location": "St. Gregory Catholic School", "Longitude": "-76.1613", "Sections": ["Troop"], "Registration Fee": "$270", "Name": "Carleton Place St Gregory's"}, {"Latitude": "45.394", "Meeting Day": "Tuesday", "Meeting Time": "6:00 PM", "Meeting Location": "Pleasant Park Public School", "Longitude": "-75.6477", "Sections": ["Troop"], "Registration Fee": "$285", "Name": "104th Ottawa"}, {"Latitude": "45.4808", "Meeting Day": "Monday", "Meeting Time": "6:30 PM", "Meeting Location": "Fallingbrook Community Elementary School", "Longitude": "-75.487", "Sections": ["Troop"], "Registration Fee": "$260", "Name": "4th Orleans Dragon"}, {"Latitude": "44.1514", "Meeting Day": "Wednesday", "Meeting Time": "6:30 PM", "Meeting Location": "Grace United Church", "Longitude": "-81.0261", "Sections": ["Troop"], "Registration Fee": "$230", "Name": "5th Hanover "}, {"Latitude": "45.5018", "Meeting Day": "Friday", "Meeting Time": "7:30 PM", "Meeting Location": "1897, Avenue de l'Eglise, St-Laurent, QC H4M 1E6", "Longitude": "-73.6768", "Sections": ["Troop"], "Registration Fee": "$295", "Name": "Lien Doan Lac Viet"}, {"Latitude": "45.2437", "Meeting Day": "Wednesday", "Meeting Time": "7:00 PM", "Meeting Location": "St. Benedict's", "Longitude": "-75.7352", "Sections": ["Troop"], "Registration Fee": "$265", "Name": "25th Nepean B"}, {"Latitude": "45.0177", "Meeting Day": "Wednesday", "Meeting Time": "7:00 PM", "Meeting Location": "Trinity Anglican Church Hall", "Longitude": "-74.7309", "Sections": ["Troop"], "Registration Fee": "$230", "Name": "3rd Cornwall"}, {"Latitude": "44.9818", "Meeting Day": "Monday", "Meeting Time": "7:30 PM", "Meeting Location": "The Civitan Hall Perth", "Longitude": "-75.7965", "Sections": ["Troop"], "Registration Fee": "$230", "Name": "Perth Civitan"}, {"Latitude": "46.088", "Meeting Day": "Monday", "Meeting Time": "7:00 PM", "Meeting Location": "Community Centre", "Longitude": "-79.3636", "Sections": ["Troop"], "Registration Fee": "$230", "Name": "1st Powassan"}, {"Latitude": "43.8611", "Meeting Day": "Thursday", "Meeting Time": "6:00 PM", "Meeting Location": "Lakewoods Public School (Gym) ", "Longitude": "-78.8458", "Sections": ["Troop"], "Registration Fee": "$250", "Name": "27th Oshawa A"}, {"Latitude": "44.293", "Meeting Day": "Thursday", "Meeting Time": "6:30 PM", "Meeting Location": "Prince of Wales School", "Longitude": "-78.3327", "Sections": ["Troop"], "Registration Fee": "$265", "Name": "33rd Peterborough"}, {"Latitude": "45.476", "Meeting Day": "Monday", "Meeting Time": "7:00 PM", "Meeting Location": "Orleans United Church", "Longitude": "-75.5354", "Sections": ["Troop"], "Registration Fee": "$270", "Name": "8th Orleans United Troop"}, {"Latitude": "44.3101", "Meeting Day": "Monday", "Meeting Time": "6:30 PM", "Meeting Location": "Our Lady of Mount Carmel-Parish Hall", "Longitude": "-77.9598", "Sections": ["Troop"], "Registration Fee": "$230", "Name": "1st Hastings"}, {"Latitude": "44.2796", "Meeting Day": "Tuesday", "Meeting Time": "6:30 PM", "Meeting Location": "GRACE UNITED CHURCH", "Longitude": "-78.323", "Sections": ["Troop"], "Registration Fee": "$230", "Name": "19th Peterborough"}, {"Latitude": "45.3903", "Meeting Day": "Thursday", "Meeting Time": "7:00 PM", "Meeting Location": "St Lawrence School - Champlain Pavillion", "Longitude": "-73.5277", "Sections": ["Troop"], "Registration Fee": "$230", "Name": "1st Candiac"}, {"Latitude": "48.7602", "Meeting Day": "Tuesday", "Meeting Time": "6:30 PM", "Meeting Location": "Iroquois Falls Public School", "Longitude": "-80.6088", "Sections": ["Troop"], "Registration Fee": "$260", "Name": "Iroquois Falls"}, {"Latitude": "43.9099", "Meeting Day": "Thursday", "Meeting Time": "6:00 PM", "Meeting Location": "David Boucher School", "Longitude": "-78.8365", "Sections": ["Troop"], "Registration Fee": "$245", "Name": "36th Oshawa"}, {"Latitude": "44.2905", "Meeting Day": "Tuesday", "Meeting Time": "7:00 PM", "Meeting Location": "Westdale United Church", "Longitude": "-78.3672", "Sections": ["Troop"], "Registration Fee": "$230", "Name": "4th Peterborough"}, {"Latitude": "44.3466", "Meeting Day": "Tuesday", "Meeting Time": "7:00 PM", "Meeting Location": "McCaskill's Mills PS", "Longitude": "-79.0447", "Sections": ["Troop"], "Registration Fee": "$230", "Name": "1st Cannington"}, {"Latitude": "43.8867", "Meeting Day": "Thursday", "Meeting Time": "6:30 PM", "Meeting Location": "St. George's Anglican Church", "Longitude": "-78.8068", "Sections": ["Troop"], "Registration Fee": "$230", "Name": "7th Oshawa"}, {"Latitude": "46.3101", "Meeting Day": "Thursday", "Meeting Time": "7:00 PM", "Meeting Location": "Trinity United Church", "Longitude": "-79.4623", "Sections": ["Troop"], "Registration Fee": "$240", "Name": "1st North Bay"}, {"Latitude": "45.1794", "Meeting Day": "Monday", "Meeting Time": "6:30 PM", "Meeting Location": "Holy Name of Mary School", "Longitude": "-76.1261", "Sections": ["Troop"], "Registration Fee": "$230", "Name": "2nd Almonte"}, {"Latitude": "45.4822", "Meeting Day": "Monday", "Meeting Time": "6:30 PM", "Meeting Location": "St George's Anglican Church", "Longitude": "-75.6481", "Sections": ["Troop"], "Registration Fee": "$250", "Name": "2nd Gatineau"}, {"Latitude": "46.5168", "Meeting Day": "Wednesday", "Meeting Time": "6:30 PM", "Meeting Location": "Eastview Public School", "Longitude": "-84.2792", "Sections": ["Troop"], "Registration Fee": "$270", "Name": "21st Eastside"}, {"Latitude": "45.4377", "Meeting Day": "Thursday", "Meeting Time": "6:45 PM", "Meeting Location": "Kinbrun Community Centre", "Longitude": "-76.3601", "Sections": ["Troop"], "Registration Fee": "$230", "Name": "2nd Arnprior"}, {"Latitude": "46.5098", "Meeting Day": "Wednesday", "Meeting Time": "7:00 PM", "Meeting Location": "Westminster Church Hall (downstairs)", "Longitude": "-84.3289", "Sections": ["Troop"], "Registration Fee": "$230", "Name": "11th Westminster SSM"}, {"Latitude": "48.4837", "Meeting Day": "Thursday", "Meeting Time": "6:00 PM", "Meeting Location": "St Joseph School", "Longitude": "-81.2061", "Sections": ["Troop"], "Registration Fee": "$230", "Name": "1st South Porcupine"}, {"Latitude": "44.9022", "Meeting Day": "Tuesday", "Meeting Time": "6:30 PM", "Meeting Location": "Westminster Pres. Church", "Longitude": "-76.0217", "Sections": ["Troop"], "Registration Fee": "$230", "Name": "2nd Smiths Falls"}, {"Latitude": "45.2917", "Meeting Day": "Tuesday", "Meeting Time": "7:00 PM", "Meeting Location": "St. Luke Catholic School and adjacent park", "Longitude": "-75.7343", "Sections": ["Troop"], "Registration Fee": "$280", "Name": "23rd Nepean Owl"}, {"Latitude": "42.8602", "Meeting Day": "Monday", "Meeting Time": "7:00 PM", "Meeting Location": "St. Johns Anglican Church", "Longitude": "-80.7301", "Sections": ["Troop"], "Registration Fee": "$280", "Name": "2nd Tillsonburg A"}, {"Latitude": "43.0412", "Meeting Day": "Wednesday", "Meeting Time": "6:30 PM", "Meeting Location": "Royal Roads School", "Longitude": "-80.8726", "Sections": ["Troop"], "Registration Fee": "$230", "Name": "Ingersoll Scout"}, {"Latitude": "43.9425", "Meeting Day": "Monday", "Meeting Time": "6:30 PM", "Meeting Location": "Kedron P.S.", "Longitude": "-78.8645", "Sections": ["Troop"], "Registration Fee": "$250", "Name": "21st Oshawa"}, {"Latitude": "45.352", "Meeting Day": "Monday", "Meeting Time": "7:00 PM", "Meeting Location": "City View United Church", "Longitude": "-75.7401", "Sections": ["Troop"], "Registration Fee": "$270", "Name": "115th Ottawa Sea"}, {"Latitude": "45.3235", "Meeting Day": "Monday", "Meeting Time": "7:00 PM", "Meeting Location": "All Saints High School", "Longitude": "-75.9236", "Sections": ["Troop"], "Registration Fee": "$260", "Name": "1st Kanata Beaverbrook"}, {"Latitude": "45.4649", "Meeting Day": "Wednesday", "Meeting Time": "6:30 PM", "Meeting Location": "St Thomas the Apostle Catholic School", "Longitude": "-76.674", "Sections": ["Troop"], "Registration Fee": "$230", "Name": "1st Renfrew"}, {"Latitude": "46.3988", "Meeting Day": "Monday", "Meeting Time": "7:00 PM", "Meeting Location": "Laird Hall", "Longitude": "-84.1246", "Sections": ["Troop"], "Registration Fee": "$230", "Name": "1st Bar River"}, {"Latitude": "44.1637", "Meeting Day": "Tuesday", "Meeting Time": "7:00 PM", "Meeting Location": "Prince Charles Elementary School", "Longitude": "-77.3953", "Sections": ["Troop"], "Registration Fee": "$230", "Name": "2nd Sidney"}, {"Latitude": "45.5367", "Meeting Day": "Wednesday", "Meeting Time": "6:30 PM", "Meeting Location": "Socrates V Gym", "Longitude": "-73.7665", "Sections": ["Troop"], "Registration Fee": "$230", "Name": "Hellenic Scouting Group Pavlides"}, {"Latitude": "45.5654", "Meeting Day": "Monday", "Meeting Time": "6:30 PM", "Meeting Location": "Ecole Village des Jeunes", "Longitude": "-73.9115", "Sections": ["Troop"], "Registration Fee": "$230", "Name": "1st St Eustache"}, {"Latitude": "44.1067", "Meeting Day": "Tuesday", "Meeting Time": "6:30 PM", "Meeting Location": "St. Andrew's-Chalmers Presbyterian Church", "Longitude": "-79.1393", "Sections": ["Troop"], "Registration Fee": "$240", "Name": "1st Uxbridge"}, {"Latitude": "43.1322", "Meeting Day": "Wednesday", "Meeting Time": "7:00 PM", "Meeting Location": "Knox Presbyterian Church", "Longitude": "-80.7575", "Sections": ["Troop"], "Registration Fee": "$230", "Name": "7th Woodstock A"}, {"Latitude": "42.9972", "Meeting Day": "Monday", "Meeting Time": "6:30 PM", "Meeting Location": "Salford Community Centre", "Longitude": "-80.8286", "Sections": ["Troop"], "Registration Fee": "$230", "Name": "1st Salford"}, {"Latitude": "45.5202", "Meeting Day": "Tuesday", "Meeting Time": "7:00 PM", "Meeting Location": "Saint-Joseph-de-Mont-Royal", "Longitude": "-73.6453", "Sections": ["Troop"], "Registration Fee": "$355", "Name": "First Town of Mount Royal"}, {"Latitude": "45.3086", "Meeting Day": "Thursday", "Meeting Time": "6:30 PM", "Meeting Location": "Carp Ridge Eco-Wellness Centre", "Longitude": "-76.0368", "Sections": ["Troop"], "Registration Fee": "$280", "Name": "1st Carp"}, {"Latitude": "45.3916", "Meeting Day": "Wednesday", "Meeting Time": "6:30 PM", "Meeting Location": "Parc nature les Forestiers-de-Saint-Lazare", "Longitude": "-74.0204", "Sections": ["Troop"], "Registration Fee": "$300", "Name": "1st St. Lazare"}, {"Latitude": "43.7046", "Meeting Day": "Monday", "Meeting Time": "7:00 PM", "Meeting Location": "SCOUT HALL", "Longitude": "-80.3595", "Sections": ["Troop"], "Registration Fee": "$230", "Name": "1st Fergus"}, {"Latitude": "44.3198", "Meeting Day": "Thursday", "Meeting Time": "7:00 PM", "Meeting Location": "Holy Cross", "Longitude": "-79.5457", "Sections": ["Troop"], "Registration Fee": "$250", "Name": "1st Alcona"}, {"Latitude": "44.7512", "Meeting Day": "Thursday", "Meeting Time": "6:30 PM", "Meeting Location": "Washago Lions Hall", "Longitude": "-79.3351", "Sections": ["Troop"], "Registration Fee": "$240", "Name": "2nd Washago"}, {"Latitude": "45.4211", "Meeting Day": "Saturday", "Meeting Time": "1:00 PM", "Meeting Location": "Sts Peter & Paul - Closed Arabic Catholic Group", "Longitude": "-75.6643", "Sections": ["Troop"], "Registration Fee": "$280", "Name": "Sts. Peter and Paul"}, {"Latitude": "45.2685", "Meeting Day": "Tuesday", "Meeting Time": "7:00 PM", "Meeting Location": "Mary Honeywell School", "Longitude": "-75.7665", "Sections": ["Troop"], "Registration Fee": "$290", "Name": "27th Nepean"},